"photo_id","latitude","longitude","date_taken","title","annee","mois"
77151825,47.1308,0.43745,"2012-07-22 19:53:48","Manoir",2012,7
77151896,47.1235,0.482039,"2012-07-22 20:03:02","Chateau de Paviers",2012,7
88470431,47.1357,0.478442,"2013-01-09 15:28:13","Crouzilles ",2013,1
94285879,47.1241,0.459741,"2013-08-03 15:15:31","            Crouzilles          ",2013,8
70404202,48.0513,3.01612,"2012-04-16 15:55:06"," Saint-Hilaire-les-Andrésis  45",2012,4
101068508,48.0513,3.01657,"2013-12-29 09:48:21","            Saint-Hilaire-les-Andrésis 45          ",2013,12
101068910,48.052,3.01502,"2013-12-29 09:06:48","            Saint-Hilaire-les-Andrésis 45          ",2013,12
101068980,48.052,3.01383,"2013-12-29 09:18:16","            Saint-Hilaire-les-Andrésis 45          ",2013,12
101070578,48.0531,3.01313,"2013-12-29 09:25:42","            Saint-Hilaire-les-Andrésis 45          ",2013,12
101122310,48.0463,3.01925,"2013-12-30 14:40:44","            Saint-Hilaire-les-Andrésis 45          ",2013,12
97088267,46.4477,1.88911,"2013-03-31 16:41:25","            Aux confins de la Creuse et de l&#39;Indre          ",2013,3
97088276,46.4906,1.86884,"2013-07-06 13:55:46","            Le village de Crozon s/Vauvre          ",2013,7
97088309,46.4475,1.8886,"2013-08-26 19:44:13","            Coucher de soleil aux confins de la Creuse et de l&#39;Indre          ",2013,8
97088337,46.4471,1.88765,"2013-08-30 19:37:32","            Aux confins de la Creuse et de l&#39;Indre          ",2013,8
97088374,46.4484,1.88952,"2013-09-21 07:15:50","            Un nouveau jour aux confins de la Creuse et de l&#39;Indre          ",2013,9
97088395,46.4696,1.89566,"2013-09-22 09:17:59","            Château de Lalande XVIII°s. , Crozon s/Vauvre          ",2013,9
97088414,46.4725,1.88907,"2013-09-22 09:23:41","            Le chêne du Nöt, 7m50 de circonférence, Crozon s/Vauvre          ",2013,9
97088434,46.4724,1.889,"2013-09-22 09:25:23","            Le chêne du Nöt, 7m50 de circonférence, Crozon s/Vauvre          ",2013,9
105328380,46.4867,1.86822,"2014-04-03 11:33:01","            Crozon-sur-Vauvre, France          ",2014,4
105328389,46.4882,1.87,"2014-04-03 11:50:04","            Crozon-sur-Vauvre, France          ",2014,4
105328405,46.4892,1.87008,"2014-04-03 12:03:02","            Crozon-sur-Vauvre, France          ",2014,4
105612820,46.4831,1.868,"2014-03-31 17:56:55","            Crozon-sur-Vauvre, France          ",2014,3
105612819,46.483,1.86817,"2014-03-31 11:44:04","            Crozon-sur-Vauvre, France          ",2014,3
70738616,46.8255,1.70197,"2012-03-30 13:01:05","Cloitre Abbaye Notre Dame de Déols",2012,3
70738688,46.8257,1.7013,"2012-03-30 13:05:56","Détail des ruines Déols",2012,3
70738736,46.8254,1.70096,"2012-03-30 13:03:39","Notre Dame von Déols",2012,3
70738854,46.8255,1.70176,"2012-03-30 12:58:42","Ruines de l&#39;Abbaye Notre Dame de Déols ",2012,3
70742009,46.8257,1.70168,"2012-03-30 12:59:05","Déols Abbaye Notre Dame",2012,3
70742112,46.8255,1.70211,"2012-03-30 12:56:01","Déols Abbaye clunisenne du XI ème siècle",2012,3
70742171,46.8256,1.70126,"2012-03-30 13:05:11","Déols Chateauroux  Abbaye Notre Dame ",2012,3
72735744,46.8613,1.7158,"2012-05-26 15:53:33","LA TOUR DE CONTROLE DE L&#39;AEROPORT",2012,5
72735750,46.8612,1.7158,"2012-05-26 15:53:47","AEROPORT DE CHATEAUROUX",2012,5
74375594,46.8603,1.71535,"2012-05-26 15:55:08","BOEING 747",2012,5
75382247,46.8242,1.75705,"2012-07-14 19:04:49","SOLIDE ET SUR",2012,7
75382258,46.8287,1.75319,"2012-07-14 19:08:27","LA MARTINERIE",2012,7
76156856,46.8274,1.70282,"2012-07-21 12:12:14","La porte de l&#39;Horloge à Déols",2012,7
76157117,46.8258,1.70142,"2012-07-21 11:35:30","Abbaye de Déols",2012,7
77281166,46.8255,1.70193,"2012-07-21 11:31:15","Chapiteau roman de l&#39;abbaye de Déols",2012,7
77281129,46.8255,1.70196,"2012-07-21 11:38:59","Clocher de l&#39;abbaye de Déols",2012,7
77281369,46.8254,1.7011,"2012-07-21 11:27:56","Chapiteau du clocher de Déols",2012,7
77281454,46.8255,1.70098,"2012-07-21 11:27:05","Déols, chapiteau de l&#39;abbaye",2012,7
77281486,46.8252,1.69871,"2012-07-21 12:06:22","L&#39;Indre à Déols ",2012,7
77281507,46.8253,1.69874,"2012-07-21 12:06:30","La porte du Pont-Perrin à Déols",2012,7
82468567,46.8569,1.69003,"2012-11-20 09:26:41","La Ringoire ",2012,11
82468560,46.8582,1.67883,"2012-11-20 09:20:24","Gymnase de Brassioux",2012,11
82468586,46.8576,1.68984,"2012-11-20 09:29:18","La Ringoire ",2012,11
82770950,46.8504,1.7094,"2012-11-15 14:47:28","Déols (Chateauroux) M.a.ch 36",2012,11
82770975,46.8504,1.70944,"2012-11-15 14:47:21","Déols (Chateauroux) M.a.ch 36",2012,11
82770992,46.8503,1.7094,"2012-11-15 14:47:09","Déols (Chateauroux) M.a.ch 36",2012,11
87188188,46.8248,1.7019,"2013-03-10 10:46:28","Abbaye de Déols",2013,3
91601679,46.8457,1.67225,"2013-06-10 18:36:21","Coquelicot",2013,6
91601932,46.8457,1.67264,"2013-06-10 18:37:39","D 956",2013,6
91602445,46.8552,1.66705,"2013-06-10 18:14:52","Coquelicot",2013,6
91603199,46.8559,1.66581,"2013-06-10 18:25:32","D956",2013,6
97524633,46.86,1.66712,"2013-10-09 18:42:18","            Brassioux octobre 2013          ",2013,10
97524644,46.8599,1.66712,"2013-10-09 18:43:01","            Brassioux octobre 2013          ",2013,10
97524650,46.86,1.66712,"2013-10-09 18:39:34","            Brassioux octobre 2013          ",2013,10
97524652,46.8599,1.66713,"2013-10-09 18:39:09","            Brassioux octobre 2013          ",2013,10
97524659,46.86,1.66712,"2013-10-09 18:43:39","            Brassioux octobre 2013          ",2013,10
97524663,46.86,1.66711,"2013-10-09 18:43:26","            Brassioux octobre 2013          ",2013,10
97524786,46.86,1.66711,"2013-10-09 18:43:46","            Brassioux octobre 2013          ",2013,10
97524796,46.8599,1.66712,"2013-10-09 18:44:04","            Brassioux octobre 2013          ",2013,10
97524800,46.8599,1.66712,"2013-10-09 18:43:53","            Brassioux octobre 2013          ",2013,10
97524799,46.8599,1.66713,"2013-10-09 18:43:58","            Brassioux octobre 2013          ",2013,10
97526471,46.8275,1.70418,"2013-07-13 20:56:24","            Déols - Eglise Saint-Etienne          ",2013,7
97640363,46.8252,1.7013,"2013-07-14 06:27:20","            Déols - Abbaye Notre-Dame          ",2013,7
100403160,46.8549,1.68204,"2013-12-10 14:16:46","            Domaine de Brassioux          ",2013,12
100403367,46.8633,1.68926,"2013-12-10 13:48:58","            La ringoire          ",2013,12
100403393,46.8632,1.68926,"2013-12-10 13:50:20","            La ringoire          ",2013,12
100403458,46.8634,1.68921,"2013-12-10 13:51:36","            Le château d&#39;eau de Brassioux          ",2013,12
100403488,46.8532,1.69083,"2013-12-10 14:09:32","            La ringoire          ",2013,12
100403506,46.8536,1.69007,"2013-12-10 14:10:05","            Chemin du domaine de Brassioux          ",2013,12
92462853,46.8981,1.49299,"2013-06-29 16:55:03","saint Lactencin",2013,6
92462859,46.8981,1.49288,"2013-06-29 16:54:10","Mairie de Saint Lactencin",2013,6
100175855,46.8853,1.52021,"2013-12-03 16:44:34","            Saint-Lactencin, France          ",2013,12
100175852,46.8852,1.5197,"2013-12-03 16:39:30","            Saint-Lactencin, France          ",2013,12
69487470,47.2592,2.22133,"2012-04-01 15:10:39","EGLISE DE VOUZERON",2012,4
69487476,47.2604,2.22259,"2012-04-01 15:11:36","VOUZERON",2012,4
80459347,47.2597,2.22185,"2012-09-30 16:39:15","Vouzeron",2012,9
82246541,47.2671,2.22719,"2012-11-14 14:56:25","Etang de Vouzeron ",2012,11
82246620,47.2671,2.22766,"2012-11-14 14:56:05","Etang de Vouzeron ",2012,11
86472070,47.2724,2.28078,"2012-05-23 19:24:39","Untitled",2012,5
103779786,47.2733,2.27348,"2014-02-16 15:20:53","            Vouzeron, France          ",2014,2
103779828,47.2732,2.2613,"2014-02-24 14:21:23","            Vouzeron, France          ",2014,2
73100759,48.3432,1.17256,"2012-06-02 12:02:21","L&#39;église Sainte Anastase de Nonvilliers dans  Nonvilliers Grandhoux",2012,6
73100786,48.3429,1.17223,"2012-06-02 12:04:25","La Mairie et l&#39;église de Nonvilliers Grandhoux",2012,6
78810520,48.343,1.17262,"2012-09-12 14:29:01","Mairie de Nonvilliers Grandhoux",2012,9
78810544,48.3431,1.17253,"2012-09-12 14:29:16","Monument aux Morts de Nonvilliers Grandhoux",2012,9
78810560,48.3432,1.17259,"2012-09-12 14:29:32","Église Sainte Anastase de Nonvilliers",2012,9
78810585,48.3434,1.17291,"2012-09-12 14:30:29","Nef de l’Église Sainte Anastase de Nonvilliers",2012,9
78810641,48.3434,1.1731,"2012-09-12 14:31:31","Nef de l’Église Sainte Anastase de Nonvilliers",2012,9
78810660,48.3434,1.17316,"2012-09-12 14:31:49","Choeur de l’Église Sainte Anastase de Nonvilliers",2012,9
77908078,46.628,1.24528,"2012-05-02 12:02:38","ciron lanterne des mortes",2012,5
101424886,47.8218,2.84399,"2013-07-25 15:35:05","            Châtillon-Coligny          ",2013,7
75504551,47.8473,2.95897,"2012-07-16 15:55:26","Fontainejean",2012,7
75504695,47.8492,2.92607,"2012-07-16 15:21:09","Saint-Maurice sur Aveyron",2012,7
100952655,47.8485,2.96131,"2013-12-26 15:03:49","            Ruines de l&#39;abbaye de Fontainejean 12ème (Saint-Maurice-sur-Aveyron 45)          ",2013,12
100952813,47.8484,2.96016,"2013-12-26 15:09:27","            Ruines de l&#39;abbaye de Fontainejean 12 ème  (Saint-Maurice-sur-Aveyron 45)          ",2013,12
69884299,46.5464,2.35112,"2012-04-01 14:36:35","ruelle de Culan",2012,4
69884730,46.5464,2.35213,"2012-04-01 16:00:06","Cours intérieure du chateau de Culan",2012,4
69884744,46.5462,2.35203,"2012-04-01 16:00:42","Cours intérieure du chateau de Culan",2012,4
69884763,46.5461,2.35224,"2012-04-01 16:15:30","Chateau de Culan",2012,4
69884790,46.5463,2.35341,"2012-04-01 16:32:27","Aqueduc et route d&#39;accès à Culan",2012,4
69884835,46.5462,2.35235,"2012-04-01 17:09:27","Chateau de Culan",2012,4
76858525,46.5464,2.35221,"2012-08-11 15:59:19","CHATEAU DE CULAN ",2012,8
78020352,46.5463,2.3513,"2012-08-30 14:35:04","Château de Culan",2012,8
78020486,46.5472,2.35546,"2012-08-28 13:49:43","Untitled",2012,8
78020577,46.5463,2.3513,"2012-08-28 13:46:17","Château de Culan",2012,8
78040340,46.5463,2.3513,"2012-08-30 14:52:34","Château de Culan",2012,8
78040946,46.5463,2.3513,"2012-08-30 14:48:45","Château de Culan",2012,8
82322190,46.5465,2.35391,"2012-11-12 15:19:02","Le Château de Culan",2012,11
82333114,46.5458,2.35318,"2012-11-19 12:06:25","Château de Culan",2012,11
90257116,46.546,2.35364,"2013-04-08 17:55:45","Culan",2013,4
93759721,46.5445,2.35177,"2013-07-05 12:44:31","Château de Culan",2013,7
94377132,46.5458,2.35379,"2013-07-21 21:29:28","            Crépuscule sur le château et le clocher de Culan          ",2013,7
95753813,46.5465,2.35395,"2013-07-19 12:37:58","            Castello - 19 lug 13          ",2013,7
103761466,46.5461,2.35408,"2013-10-20 13:14:02","            Château de Culan (Cher)          ",2013,10
97236740,47.9179,2.41132,"2013-10-03 11:57:30","            Le Canal d&#39;Orléans.          ",2013,10
97236754,47.9201,2.41915,"2013-10-03 12:00:03","            Le Canal d&#39;Orléans.          ",2013,10
76032955,47.1249,2.92385,"2012-06-23 15:05:41","Jussy-le-Chaudrier, la Chapelle des Bordes",2012,6
76049624,47.0984,2.94483,"2012-05-23 16:16:38","Jussy-le-Chaudrier, les Bruyères",2012,5
88070565,47.0975,2.94595,"2013-03-15 16:47:23","la cheminée",2013,3
89932066,47.1305,2.93374,"2013-05-06 17:41:29","Jusssy-le-Chaudrier",2013,5
90685365,47.101,2.95103,"2013-05-22 15:43:24","Route des Bruyères",2013,5
97720846,46.9987,2.45585,"2013-07-06 08:42:22","            Plaimpied-Givaudins - Abbatiale Saint-Martin          ",2013,7
102298698,46.9985,2.4541,"2014-01-26 12:58:47","            18-Plainpied Givaudins          ",2014,1
75198913,47.3946,0.190791,"2012-06-20 10:12:42","changement de département, arrivée sur Gizeux",2012,6
92800819,47.3908,0.203998,"2013-07-07 19:05:11","Château de Gizeux",2013,7
108313558,47.3914,0.205833,"2014-05-23 18:01:25","            Châteauix de Gizeux (May/14)          ",2014,5
74084021,46.4793,1.6064,"2012-06-11 16:54:27","Cuzion",2012,6
74381055,46.4542,1.61278,"2012-06-11 17:04:47","barrage",2012,6
74381558,46.4542,1.61278,"2012-06-11 18:20:40","barrage d&#39;Eguzon",2012,6
108654324,46.4933,1.5895,"2014-04-25 11:01:59","            En direction de la vallée de la Creuse          ",2014,4
108654328,46.4828,1.59881,"2014-04-25 12:00:24","            La Creuse depuis un promontoire          ",2014,4
108654331,46.4714,1.60272,"2014-04-25 13:00:45","            La Creuse avant Pont des Piles          ",2014,4
108859683,46.4559,1.61216,"2014-04-26 07:01:28","            Barrage d&#39;Eguzon sur la Creuse          ",2014,4
108859685,46.4549,1.61585,"2014-04-26 07:13:16","            Barrage d&#39;Eguzon sur la Creuse          ",2014,4
72691623,46.4571,1.66319,"2012-05-25 16:18:43","Dolmen &quot;La pierre là&quot; à Saint Plantaire, Indre",2012,5
74819047,46.3999,1.62275,"2012-06-10 06:58:08","Untitled",2012,6
74819052,46.3997,1.62227,"2012-06-10 06:58:40","Untitled",2012,6
74819065,46.3992,1.62277,"2012-06-10 07:07:12","Untitled",2012,6
74819059,46.3996,1.62251,"2012-06-10 06:58:57","Untitled",2012,6
74819068,46.3993,1.62212,"2012-06-10 07:10:06","Untitled",2012,6
74819072,46.3997,1.62103,"2012-06-10 07:14:34","Untitled",2012,6
74819079,46.4001,1.6195,"2012-06-10 07:17:00","Untitled",2012,6
74819084,46.3992,1.61912,"2012-06-10 07:18:21","Untitled",2012,6
74819096,46.4001,1.61764,"2012-06-10 07:20:39","Untitled",2012,6
74819108,46.4002,1.6189,"2012-06-10 07:21:42","Untitled",2012,6
74819113,46.3986,1.62,"2012-06-10 07:23:43","Untitled",2012,6
103241295,46.463,1.65808,"2014-01-11 16:27:45","            La Pierre à la Marte, dolmen, Saint-Plantaire          ",2014,1
103241522,46.463,1.65802,"2014-01-11 16:26:58","            La Pierre à la Marte, dolmen, Saint-Plantaire          ",2014,1
106897660,46.3942,1.62445,"2013-04-01 13:53:36","            Crozant          ",2013,4
108859699,46.3989,1.62356,"2014-04-26 09:31:00","            Avant d&#39;arriver à Crozan          ",2014,4
108859701,46.3979,1.62461,"2014-04-26 09:36:48","            Sculpture sur le chemin          ",2014,4
64678291,47.2107,2.06305,"2012-01-09","PARC DE LA NOUE",2012,1
64678316,47.2107,2.06305,"2012-01-09","PARC DE LA NOUE",2012,1
64678343,47.2101,2.06193,"2012-01-09","CHATEAU DE LA NOUE",2012,1
64678368,47.219,2.06284,"2012-01-09","BARRAGE DE VIERZON",2012,1
64908867,47.2618,2.08466,"2012-01-14","ROUTE FORESTIERE DE LA PLAINE",2012,1
64908912,47.2617,2.08298,"2012-01-14","LA BAUGE COLBERT",2012,1
64908947,47.2617,2.0832,"2012-01-14","LA BAUGE COLBERT",2012,1
64908983,47.2606,2.10544,"2012-01-14","RESERVE",2012,1
64909016,47.2607,2.10439,"2012-01-14","LA GRANDE MARE",2012,1
64909042,47.2608,2.10426,"2012-01-14","LA GRANDE MARE",2012,1
64909105,47.2608,2.10429,"2012-01-14","LA GRANDE MARE",2012,1
64909132,47.2608,2.10425,"2012-01-14","LA GRANDE MARE",2012,1
64909158,47.2608,2.10431,"2012-01-14","LA GRANDE MARE",2012,1
64909711,47.261,2.10499,"2012-01-14","LA GRANDE MARE",2012,1
64909751,47.2502,2.10214,"2012-01-14","ROUTE FORESTIERE DU NORD",2012,1
64909772,47.2499,2.10178,"2012-01-14","LA PLAINE",2012,1
64909792,47.2456,2.09328,"2012-01-14","LA TOUR TELECOMM",2012,1
64909828,47.2451,2.09281,"2012-01-14","LA CROIX ST ANNE",2012,1
64909869,47.2451,2.09281,"2012-01-14","LA CROIX ST ANNE",2012,1
64909879,47.244,2.09096,"2012-01-14","LA TOUR TELECOMM",2012,1
64997143,47.2608,2.10426,"2012-01-14","LA GRANDE MARE",2012,1
65016118,47.2217,2.07615,"2012-01-16","BEFFROI DE VIERZON",2012,1
65016154,47.2217,2.07598,"2012-01-16","EGLISE NOTRE-DAME",2012,1
65016177,47.2217,2.07581,"2012-01-16","VIERZON",2012,1
65016201,47.2217,2.07595,"2012-01-16","VIERZON",2012,1
65016250,47.2217,2.0763,"2012-01-16","BEFFROI DE VIERZON",2012,1
65016286,47.2127,2.10907,"2012-01-16","YEVRE AU DOURNON",2012,1
65016319,47.2127,2.10903,"2012-01-16","YEVRE AU DOURNON",2012,1
65016358,47.2127,2.10903,"2012-01-16","YEVRE AU DOURNON",2012,1
65016387,47.2127,2.10786,"2012-01-16","EGLISE ST JOSEPH VU DU DOURNON",2012,1
65016427,47.2124,2.10777,"2012-01-16","YEVRE AU DOURNON",2012,1
65016847,47.2125,2.10775,"2012-01-16","ARRIERE DE L&#39;EGLISE ST JOSEPH",2012,1
65016867,47.2148,2.10402,"2012-01-16","ETANG DES FORGES",2012,1
65016892,47.2149,2.10396,"2012-01-16","ETANG DES FORGES",2012,1
65016916,47.2155,2.10275,"2012-01-16","ETANG DES FORGES",2012,1
65016940,47.2155,2.10272,"2012-01-16","ETANG DES FORGES",2012,1
65016975,47.2248,2.10396,"2012-01-16","LE JOFFROIS",2012,1
65017031,47.2247,2.10389,"2012-01-16","CHEMIN DES GUERINETTES DU JOFFROIS",2012,1
65017052,47.2355,2.09615,"2012-01-16","L&#39;OREE DE SOLOGNE",2012,1
65369680,47.2295,2.03881,"2012-01-22","Collège Fernand Léger",2012,1
65369752,47.2294,2.03859,"2012-01-22","Fernand Léger",2012,1
65369793,47.2282,2.03767,"2012-01-22","Collège Fernand léger 2",2012,1
65369817,47.2212,2.06219,"2012-01-22","Médiathèque",2012,1
65369886,47.2209,2.06522,"2012-01-22","Skate park",2012,1
65369920,47.2205,2.06598,"2012-01-22","Le bassin",2012,1
65370017,47.2218,2.06985,"2012-01-22","Mairie",2012,1
65370045,47.2215,2.07009,"2012-01-22","Peinture trompe l&#39;oeil",2012,1
65370074,47.2214,2.07144,"2012-01-22","Maison &quot;Jeanne d&#39;Arc&quot;",2012,1
65370100,47.2229,2.07082,"2012-01-22","Beffroi",2012,1
65370146,47.2231,2.06952,"2012-01-22","Maison colombage",2012,1
65370196,47.2231,2.06944,"2012-01-22","Rue piétonne bas",2012,1
65370255,47.2231,2.0696,"2012-01-22","Rue piétonne haut",2012,1
65370326,47.2236,2.0648,"2012-01-22","Théâtre Mac Nab",2012,1
65370391,47.2243,2.06318,"2012-01-22","Square Emile Péraudin",2012,1
65370431,47.2288,2.0612,"2012-01-22","Lycée Henri Brisson",2012,1
66120649,47.2249,2.06051,"2012-02-04 10:32:45","ESPLANADE DE LA FRANCAISE SOUS LA NEIGE",2012,2
66120671,47.2249,2.0606,"2012-02-04 10:31:18","CINE LUMIERE SOUS LA NEIGE",2012,2
66120703,47.2249,2.06055,"2012-02-04 10:33:30","LA FRANCAISE LE 04/02/2012",2012,2
66120737,47.2254,2.06059,"2012-02-04 10:35:50","CELESTIN GERARD SOUS LA NEIGE",2012,2
66120768,47.2254,2.06061,"2012-02-04 10:35:57","CELESTIN GERARD",2012,2
66120797,47.2205,2.06901,"2012-02-04 10:45:17","LA MAIRIE ET LE JARDIN PUBLIC",2012,2
66120830,47.2205,2.06894,"2012-02-04 10:45:50","VUE DE QUAI DU BASSIN",2012,2
66120871,47.2205,2.0689,"2012-02-04 10:45:57","LA MAIRIE ET LE CANAL",2012,2
66120893,47.2205,2.0691,"2012-02-04 10:46:10","VUE DU QUAI DU BASSIN",2012,2
66121384,47.2205,2.06925,"2012-02-04 10:46:24","QUAI DU BASSIN",2012,2
66121439,47.2203,2.06924,"2012-02-04 10:47:04","VIERZON  QUAI DU BASSIN",2012,2
66121466,47.22,2.07254,"2012-02-04 10:50:14","QUAI DU BASSIN SOUS LA NEIGE",2012,2
66121493,47.2202,2.0725,"2012-02-04 10:51:04","L&#39;YEVRE",2012,2
66121530,47.2202,2.07253,"2012-02-04 10:51:23","EGLISE NOTRE DAME",2012,2
66121564,47.2206,2.0725,"2012-02-04 10:52:53","L&#39;YEVRE",2012,2
66121877,47.2206,2.0725,"2012-02-04 10:53:04","L&#39;YEVRE SOUS LA NEIGE",2012,2
66121906,47.2206,2.07243,"2012-02-04 10:53:20","EGLISE NOTRE DAME LE 04/02/2012",2012,2
66121933,47.2198,2.07393,"2012-02-04 10:56:52","LE CANAL SOUS LA NEIGE",2012,2
66121977,47.215,2.09433,"2012-02-04 11:10:08","LE CANAL",2012,2
66122009,47.2149,2.09467,"2012-02-04 11:10:29","PETIT RUISSEAU",2012,2
66122033,47.2135,2.09757,"2012-02-04 11:17:54","ETANG DES VARENNES",2012,2
66122058,47.2181,2.04183,"2012-02-04 11:45:17","BORD DU CHER SOUS LA NEIGE",2012,2
66122110,47.2181,2.04195,"2012-02-04 11:46:45","A20 ET LE CHER",2012,2
68598511,47.1955,2.0688,"2012-03-16 18:45:43","AERODROME",2012,3
69896576,47.198,2.0706,"2012-04-08 16:26:35","LES CRELES",2012,4
69896594,47.1947,2.06893,"2012-04-08 16:42:44","LES PETITES CRELES",2012,4
70612814,47.2512,2.06031,"2012-04-14 15:34:43","Vierzon",2012,4
70612901,47.2496,2.0604,"2012-04-14 15:42:50","Vierzon",2012,4
71565393,47.2339,2.03222,"2012-05-06 08:46:42","CHEMIN DE LA GIRAUDIERE",2012,5
71565450,47.2332,2.03289,"2012-05-06 08:47:42","CHEMIN DE SAINT PRIEST",2012,5
71565467,47.2314,2.03362,"2012-05-06 08:51:51","CHEMIN DE ST PRIEST",2012,5
71565474,47.2268,2.0348,"2012-05-06 08:59:51","CANAL DU BERRY",2012,5
71565484,47.2285,2.01649,"2012-05-06 09:32:06","LES PETIES VEVES",2012,5
72280535,47.2251,2.05893,"2012-05-13 09:16:56","Le musée Laumônnier de la locomotive a vapeur,à Vierzon.",2012,5
72280558,47.225,2.05941,"2012-05-13 09:17:31","Untitled",2012,5
72280575,47.226,2.06157,"2012-05-13 09:20:38","Pont de Toulouse, à Vierzon et en couleurs.",2012,5
72280605,47.2242,2.06355,"2012-05-13 09:22:52","Untitled",2012,5
72280732,47.2236,2.06473,"2012-05-13 09:23:35","Untitled",2012,5
72280777,47.2229,2.06626,"2012-05-13 09:25:59","Untitled",2012,5
72280793,47.223,2.06599,"2012-05-13 09:26:18","Untitled",2012,5
72280817,47.222,2.06732,"2012-05-13 09:28:40","Untitled",2012,5
72280846,47.2222,2.06785,"2012-05-13 09:29:28","Untitled",2012,5
72280880,47.2213,2.06722,"2012-05-13 09:31:29","Untitled",2012,5
72280950,47.2211,2.06798,"2012-05-13 09:34:12","Untitled",2012,5
72280984,47.2209,2.06948,"2012-05-13 09:37:20","L&#39;auditorium Albert Collet,1932-1935,à Vierzon*.",2012,5
72329997,47.2212,2.06934,"2012-05-13 09:38:43","L&#39;auditorium Albert Collet,Vierzon.",2012,5
72330009,47.2212,2.069,"2012-05-13 09:40:07","L&#39;auditorium Albert Collet à Vierzon.",2012,5
72330023,47.2218,2.06956,"2012-05-13 09:41:46","Untitled",2012,5
72330064,47.2215,2.07113,"2012-05-13 09:42:49","La maison Jeanne d&#39;Arc à Vierzon.",2012,5
72330098,47.2214,2.07175,"2012-05-13 09:43:42","Untitled",2012,5
72330114,47.2204,2.08065,"2012-05-13 09:48:09","Untitled",2012,5
72330128,47.2212,2.0757,"2012-05-13 09:48:18","Untitled",2012,5
72330201,47.2201,2.08259,"2012-05-13 09:50:22","&quot;La Berrichonne&quot;.",2012,5
72330220,47.2179,2.09722,"2012-05-13 09:55:30","Untitled",2012,5
72330264,47.218,2.09757,"2012-05-13 09:56:59","Untitled",2012,5
72330312,47.2156,2.10277,"2012-05-13 10:00:06","Untitled",2012,5
72330355,47.2148,2.10404,"2012-05-13 10:02:35","Untitled",2012,5
72384075,47.2231,2.07113,"2012-05-13 10:21:51","Untitled",2012,5
72384123,47.2227,2.071,"2012-05-13 10:24:21","Untitled",2012,5
72384144,47.2227,2.06952,"2012-05-13 10:26:00","Untitled",2012,5
72384183,47.2227,2.0689,"2012-05-13 10:26:50","Untitled",2012,5
72384102,47.2228,2.07123,"2012-05-13 10:23:26","Untitled",2012,5
72384260,47.223,2.07019,"2012-05-13 10:30:26","Untitled",2012,5
72442169,47.2237,2.06491,"2012-05-13 10:36:58","Ancienne boutique &quot;Au souvenir&quot;,à Vierzon.",2012,5
72442243,47.2238,2.0645,"2012-05-13 10:39:01","&quot;Café du Progrès&quot;.",2012,5
72442365,47.2208,2.06745,"2012-05-13 10:46:56","Untitled",2012,5
72442385,47.2195,2.06677,"2012-05-13 10:48:21","Untitled",2012,5
72442778,47.2199,2.06696,"2012-05-13 10:48:33","Untitled",2012,5
72443965,47.2145,2.0632,"2012-05-13 11:00:47","Untitled",2012,5
72443996,47.215,2.06279,"2012-05-13 11:01:38","Ecole Maternelle Bourgneuf,Vierzon.",2012,5
72444024,47.2155,2.06271,"2012-05-13 11:02:23","Ancienne Epicerie,à Vierzon.",2012,5
72444035,47.2155,2.06177,"2012-05-13 11:03:34","Le Patronage Laique Municipal de Vierzon.",2012,5
72444045,47.2143,2.03036,"2012-05-13 11:12:39","&quot;Au goujon qui tête&quot;, à Vierzon.",2012,5
72737463,47.223,2.04789,"2012-05-26 20:35:09","RUE ANATOLE FRANCE",2012,5
72737476,47.2231,2.04787,"2012-05-26 20:36:17","LAVOIR RUE ALPHONSE PRADAT",2012,5
72737498,47.223,2.04795,"2012-05-26 20:36:39","VUE DU PONT DE LA RUE ANATOLE FRANCE ",2012,5
72737502,47.2228,2.05783,"2012-05-26 20:42:19","CINE LUMIERE ",2012,5
72737725,47.2218,2.06091,"2012-05-26 20:46:02","PLACE DU CIRQUE",2012,5
72737735,47.2214,2.0632,"2012-05-26 20:59:03","RUE DU GENERAL DE GAULLE",2012,5
72737743,47.2217,2.06092,"2012-05-26 21:48:24","BIENNALE DU CIRQUE DE VIERZON",2012,5
72738047,47.2248,2.06073,"2012-05-26 21:57:25","ESPLANADE DE LA FRANCAISE",2012,5
72738056,47.2248,2.06018,"2012-05-26 21:59:46","ESPLANADE DE LA FRANCAISE",2012,5
72738062,47.2248,2.06019,"2012-05-26 22:01:07","ESPLANADE DE LA FRANCAISE",2012,5
72738072,47.2292,2.05074,"2012-05-26 22:07:00","MAIRIE DE ST MARTIN DE NUIT",2012,5
72829998,47.2279,2.04702,"2012-05-13 14:47:19","Untitled",2012,5
72830018,47.2285,2.05131,"2012-05-13 14:52:47","Untitled",2012,5
72830040,47.2287,2.06118,"2012-05-13 15:06:04","Untitled",2012,5
73653037,47.2581,2.10917,"2012-05-28 13:31:58","tête de bois, en forêt de Vierzon !",2012,5
73653118,47.2242,2.06111,"2012-06-01 09:20:40","Vierzon, Gustave Eiffel touch",2012,6
73653144,47.2603,2.10472,"2012-05-28 13:19:20","parcours de la salamandre au nord de Vierzon",2012,5
74118503,47.2249,2.06059,"2012-06-19 18:12:43","Esplanade de la Societe Francaise de Vierzon",2012,6
74375681,47.1952,2.06887,"2012-03-16 18:48:32","AERODROME DE MEREAU",2012,3
75525907,47.2346,2.06739,"2012-07-17 12:54:40","STADE BROUHOT VIERZON FOOT 18",2012,7
75718022,47.224,2.06324,"2012-07-21 06:20:52","SQUARE EMILE PERAUDIN",2012,7
75718030,47.2241,2.0633,"2012-07-21 06:21:19","LE PAYSAN DE DALOU",2012,7
75718039,47.2241,2.06328,"2012-07-21 06:21:33","LE PAYSAN DE DALOU",2012,7
75718049,47.2242,2.06322,"2012-07-21 06:21:38","SQUARE EMILE PERAUDIN",2012,7
75718059,47.2241,2.06328,"2012-07-21 06:21:47","SQUARE EMILE PERAUDIN",2012,7
75718066,47.2241,2.06341,"2012-07-21 06:22:10","SQUARE EMILE PERAUDIN",2012,7
75718073,47.224,2.06359,"2012-07-21 06:22:52","SQUARE EMILE PERAUDIN",2012,7
75718196,47.2248,2.06275,"2012-07-21 06:25:40","PLACE DE LA CROIX BLANCHE",2012,7
75718202,47.2221,2.06882,"2012-07-21 06:29:02","SQUARE DES REMPARTS",2012,7
75718208,47.2221,2.06881,"2012-07-21 06:29:05","SQUARE DES REMPARTS",2012,7
75718214,47.2221,2.06874,"2012-07-21 06:29:16","SQUARE DES REMPARTS",2012,7
75718222,47.2221,2.0688,"2012-07-21 06:29:25","SQUARE DES REMPARTS",2012,7
75718237,47.2212,2.07007,"2012-07-21 06:33:29","JARDIN PUBLIC",2012,7
75718244,47.2211,2.0701,"2012-07-21 06:33:47","JARDIN PUBLIC",2012,7
75718250,47.2211,2.07008,"2012-07-21 06:34:00","JARDIN PUBLIC",2012,7
75718258,47.2213,2.0702,"2012-07-21 06:34:53","JARDIN PUBLIC",2012,7
75718269,47.2213,2.07018,"2012-07-21 06:35:00","JARDIN PUBLIC",2012,7
75718227,47.2216,2.06983,"2012-07-21 06:32:13","HOTEL DE VILLE",2012,7
75718480,47.2214,2.07152,"2012-07-21 06:38:16","EGLISE NOTRE DAME",2012,7
75718473,47.222,2.06912,"2012-07-21 06:36:39","RUE DU GROS CAILLOU",2012,7
75718484,47.2217,2.07138,"2012-07-21 06:39:26","VIERZON",2012,7
75718487,47.2217,2.07139,"2012-07-21 06:39:37","VIERZON",2012,7
75718500,47.222,2.07126,"2012-07-21 06:42:10","EGLISE NOTRE DAME",2012,7
75718503,47.222,2.07127,"2012-07-21 06:42:27","EGLISE NOTRE DAME",2012,7
75718506,47.2221,2.07164,"2012-07-21 06:44:23","EGLISE NOTRE DAME",2012,7
75718508,47.2221,2.07196,"2012-07-21 06:45:04","EGLISE NOTRE DAME",2012,7
75718510,47.2221,2.07194,"2012-07-21 06:45:13","EGLISE NOTRE DAME",2012,7
75718519,47.222,2.07196,"2012-07-21 06:45:23","EGLISE NOTRE DAME",2012,7
75718495,47.2218,2.07135,"2012-07-21 06:40:27","EGLISE NOTRE DAME",2012,7
75718678,47.2221,2.07232,"2012-07-21 06:46:17","VIERZON",2012,7
75718676,47.2221,2.0723,"2012-07-21 06:45:56","BEFFROI DE VIERZON",2012,7
75718682,47.2228,2.07105,"2012-07-21 06:50:58","BEFFROI DE VIERZON",2012,7
75718694,47.2217,2.07597,"2012-07-21 06:57:01","VIERZON",2012,7
75718691,47.2227,2.07169,"2012-07-21 06:52:34","BEFFROI",2012,7
75718705,47.2217,2.07586,"2012-07-21 06:57:15","VIERZON",2012,7
75718714,47.2217,2.07593,"2012-07-21 06:57:18","VIERZON",2012,7
75718717,47.2217,2.07606,"2012-07-21 06:57:22","VIERZON",2012,7
75718727,47.2217,2.07574,"2012-07-21 06:57:45","VIERZON",2012,7
75718735,47.2218,2.07622,"2012-07-21 06:58:22","T.E.R ",2012,7
75718700,47.2217,2.0758,"2012-07-21 06:57:11","VIERZON",2012,7
75718981,47.2217,2.07617,"2012-07-21 06:58:26","T.E.R",2012,7
75718996,47.2304,2.06971,"2012-07-21 07:09:06","CHEMIN DE FOUGERY",2012,7
75718987,47.224,2.07124,"2012-07-21 07:03:29","VIERZON",2012,7
75719009,47.2313,2.07005,"2012-07-21 07:10:14","CHEMIN DE FOUGERY",2012,7
75719023,47.2315,2.07015,"2012-07-21 07:10:25","CHEMIN DE FOUGERY",2012,7
75719043,47.2321,2.07044,"2012-07-21 07:12:34","CHEMIN DE FOUGERY",2012,7
75719059,47.2329,2.0709,"2012-07-21 07:14:30","CHEMIN DE FOUGERY",2012,7
75719070,47.2288,2.06438,"2012-07-21 07:21:46","L.T.E HENRI BRISSON",2012,7
77668580,47.2204,2.0685,"2012-08-23 20:26:04","VIERZON Centre",2012,8
77668623,47.2205,2.0677,"2012-08-23 20:27:43","VIERZON Centre (2)",2012,8
79389312,47.2299,2.01853,"2012-09-23 11:01:50","CANAL DU BERRY",2012,9
79389324,47.2299,2.01866,"2012-09-23 11:02:01","CANAL DU BERRY",2012,9
79708648,47.2428,2.04428,"2012-09-28 17:56:55","ETANG DE FAY",2012,9
81804353,47.2266,2.06136,"2012-10-27 14:16:19","Pont de Toulouse à Vierzon",2012,10
83138897,47.227,2.06041,"2012-11-21 13:56:45","Hips!à Vierzon.",2012,11
88479441,47.2228,2.06105,"2013-04-07 15:49:22","Four à globe",2013,4
88479472,47.2325,2.05191,"2013-04-07 16:17:21","Nouvel horizon",2013,4
88479538,47.2305,2.04749,"2013-04-07 16:23:05","La lutte des classes",2013,4
90570692,47.2115,2.1292,"2013-05-19 15:39:15","Moto cross Vierzon",2013,5
93768341,47.2416,2.04351,"2013-07-22 11:27:55","roadview",2013,7
93768344,47.265,2.04308,"2013-07-22 11:32:01","roadview",2013,7
94481662,47.2243,2.05958,"2012-09-02 18:03:17","            Société Française          ",2012,9
95127573,47.2392,2.08756,"2013-08-18 12:28:51","            Vierzon, France          ",2013,8
98049929,47.2085,2.04647,"2013-10-20 14:39:28","            Vierzon, France          ",2013,10
98102777,47.209,2.0465,"2013-10-20 18:34:19","            Chêne d&#39;Amérique à Vierzon          ",2013,10
98342939,47.2223,2.07103,"2013-10-15 12:48:49","            Vierzon          ",2013,10
98343156,47.2218,2.06955,"2013-10-15 12:47:22","            Mairie          ",2013,10
98875511,47.2214,2.05908,"2013-08-29 14:56:11","            Notre Maison          ",2013,8
100565604,47.2203,2.0697,"2013-12-15 15:21:41","            vierzon          ",2013,12
100706830,47.2227,2.07159,"2013-12-15 15:39:17","            vierzon          ",2013,12
107448432,47.2232,2.07389,"2014-05-09 13:17:20","            Monument aux morts de Vierzon (Cimetière Vierzon-Forges)          ",2014,5
107448444,47.2208,2.07023,"2014-05-09 13:33:39","            Monument aux morts de Vierzon (14-18)          ",2014,5
79434154,48.6857,0.888876,"2012-09-22 16:12:19","Église Saint Pierre de Boissy lès Perche",2012,9
79434149,48.6855,0.889238,"2012-09-22 16:11:30","Église Saint Pierre de Boissy lès Perche",2012,9
79434160,48.6856,0.888712,"2012-09-22 16:12:43","Mairie de Boissy lès Perche",2012,9
79434167,48.6855,0.888972,"2012-09-22 16:13:11","Monument aux Morts de Boissy lès Perche",2012,9
79434173,48.6857,0.889302,"2012-09-22 16:14:08","Nef de l&#39;Église Saint Pierre de Boissy lès Perche",2012,9
79434183,48.6857,0.889246,"2012-09-22 16:14:38","Bénitier de l&#39;Église Saint Pierre de Boissy lès Perche",2012,9
79434194,48.6858,0.889469,"2012-09-22 16:15:36","Chœur de l&#39;Église Saint Pierre de Boissy lès Perche",2012,9
79434209,48.6857,0.889461,"2012-09-22 16:16:06","Chapelle de l&#39;Église Saint Pierre de Boissy lès Perche",2012,9
79434220,48.6858,0.889385,"2012-09-22 16:16:33","Chapelle de l&#39;Église Saint Pierre de Boissy lès Perche",2012,9
79434224,48.6857,0.889418,"2012-09-22 16:16:47","Nef de l&#39;Église Saint Pierre de Boissy lès Perche",2012,9
79771854,46.9248,1.01071,"2012-08-19 12:15:14","Le dolmen de Gargantua (2/2)",2012,8
80023862,46.9248,1.01051,"2012-08-19 12:15:44","Le dolmen de Gargantua (photo 1/2)",2012,8
87454452,46.6424,0.934181,"2012-05-17 16:43:36","Majon (D50) langs de L&#39;Anglin bij &#39;Le Bois d&#39;Haut&#39;",2012,5
87454453,46.6435,0.933065,"2012-05-17 16:43:41","Majon (D50) langs de L&#39;Anglin bij &#39;Le Bois d&#39;Haut&#39;",2012,5
87454454,46.6435,0.933065,"2012-05-17 16:45:39","Majon (D50) langs de L&#39;Anglin bij &#39;Le Bois d&#39;Haut&#39;",2012,5
87454457,46.6432,0.933752,"2012-05-17 16:48:24","Majon (D50) langs de L&#39;Anglin bij &#39;Le Bois d&#39;Haut&#39;",2012,5
87454456,46.6435,0.933065,"2012-05-17 16:45:43","Majon (D50) langs de L&#39;Anglin bij &#39;Le Bois d&#39;Haut&#39;",2012,5
87454458,46.6432,0.933752,"2012-05-17 16:48:42","Majon (D50) langs de L&#39;Anglin bij &#39;Le Bois d&#39;Haut&#39;",2012,5
87454459,46.6432,0.933752,"2012-05-17 16:49:11","Majon (D50) langs de L&#39;Anglin bij &#39;Le Bois d&#39;Haut&#39;",2012,5
87454466,46.6424,0.934181,"2012-05-17 16:58:53","Majon (D50) langs de L&#39;Anglin bij &#39;Le Bois d&#39;Haut&#39;&#39; - This is not an easy way up.",2012,5
87454465,46.6424,0.934181,"2012-05-17 16:58:46","Majon (D50) langs de L&#39;Anglin bij &#39;Le Bois d&#39;Haut&#39; - This is not an easy way up.",2012,5
87454467,46.6424,0.934181,"2012-05-17 16:59:02","Majon (D50) langs de L&#39;Anglin bij &#39;Le Bois d&#39;Haut&#39;&#39; - This is not an easy way up.",2012,5
87454468,46.6424,0.934181,"2012-05-17 16:59:54","Majon (D50) langs de L&#39;Anglin bij &#39;Le Bois d&#39;Haut&#39;&#39; - This is not an easy way up.",2012,5
87454479,46.643,0.934412,"2012-05-17 17:07:35","Uitzichtpunt - View point - Point de Vue - Majon (D50) langs de L&#39;Anglin bij &#39;Le Bois d&#39;Haut&#39;&#39;",2012,5
87454482,46.643,0.934412,"2012-05-17 17:08:54","Uitzichtpunt - View point - Point de Vue - Majon (D50) langs de L&#39;Anglin bij &#39;Le Bois d&#39;Haut&#39;&#39;",2012,5
87454483,46.643,0.934412,"2012-05-17 17:11:45","Kogelbloem - Globularia bisnagarica L. &amp; Ruige scheefkelk (Arabis hirsuta subsp. hirsuta)  met rechts Chamousseau",2012,5
87454487,46.643,0.934412,"2012-05-17 17:11:33","Uitzichtpunt - View point - Point de Vue - Majon (D50) langs de L&#39;Anglin bij &#39;Le Bois d&#39;Haut&#39;&#39; &amp; Ruige scheefkelk (Arabis hirsuta subsp. hirsuta)",2012,5
87454488,46.643,0.934412,"2012-05-17 17:12:37","Uitzichtpunt - View point - Point de Vue - Majon (D50) langs de L&#39;Anglin bij &#39;Le Bois d&#39;Haut&#39;&#39; waarvan je de huizen rechtsboven kan zien.",2012,5
87454489,46.643,0.934412,"2012-05-17 17:12:40","Uitzichtpunt - View point - Point de Vue - Majon (D50) langs de L&#39;Anglin bij &#39;Le Bois d&#39;Haut&#39;&#39;",2012,5
87454490,46.643,0.934412,"2012-05-17 17:12:53","Uitzichtpunt - View point - Point de Vue - Majon (D50) langs de L&#39;Anglin bij &#39;Le Bois d&#39;Haut&#39;&#39; &#39; met rechts Chamousseau",2012,5
87454493,46.643,0.934412,"2012-05-17 17:12:56","Uitzichtpunt - View point - Point de Vue - Majon (D50) langs de L&#39;Anglin bij &#39;Le Bois d&#39;Haut&#39;&#39;",2012,5
87454492,46.643,0.934412,"2012-05-17 17:12:59","Uitzichtpunt - View point - Point de Vue - Majon (D50) langs de L&#39;Anglin bij &#39;Le Bois d&#39;Haut&#39;&#39;",2012,5
87454494,46.643,0.934412,"2012-05-17 17:14:02","Wit Zonneroosje - Helianthemum apenninum (L.) Mill. &amp; Ruige scheefkelk (Arabis hirsuta subsp. hirsuta)",2012,5
87454495,46.643,0.934412,"2012-05-17 17:28:45","Uitzichtpunt - View point - Point de Vue - Majon (D50) langs de L&#39;Anglin bij &#39;Le Bois d&#39;Haut&#39;&#39; &#39; met links Chamousseau",2012,5
87454496,46.643,0.934412,"2012-05-17 17:29:57","Uitzichtpunt - View point - Point de Vue - Majon (D50) langs de L&#39;Anglin bij &#39;Le Bois d&#39;Haut&#39;&#39;",2012,5
87454498,46.643,0.934412,"2012-05-17 17:29:54","Uitzichtpunt - View point - Point de Vue - Majon (D50) langs de L&#39;Anglin bij &#39;Le Bois d&#39;Haut&#39;&#39; en gebouw aan Le Cimetiere",2012,5
87454501,46.643,0.934412,"2012-05-17 17:29:36","Uitzichtpunt - View point - Point de Vue - Majon (D50) langs de L&#39;Anglin bij &#39;Le Bois d&#39;Haut&#39;&#39;&#39; met rechts Chamousseau",2012,5
87454503,46.643,0.934412,"2012-05-17 17:28:57","Uitzichtpunt - View point - Point de Vue - Majon (D50) langs de L&#39;Anglin bij &#39;Le Bois d&#39;Haut&#39;&#39; en gebouw aan Le Cimetiere",2012,5
87454506,46.643,0.934412,"2012-05-17 17:31:29","Uitzichtpunt - View point - Point de Vue - Majon (D50) langs de L&#39;Anglin bij &#39;Le Bois d&#39;Haut&#39;&#39; en gebouw aan Le Cimetiere (Mérigny)",2012,5
87454509,46.643,0.934412,"2012-05-17 17:32:35","Uitzichtpunt - View point - Point de Vue - Majon (D50) langs de L&#39;Anglin bij &#39;Le Bois d&#39;Haut&#39;&#39;&#39; met rechts Chamousseau",2012,5
87454510,46.643,0.934412,"2012-05-17 17:32:46","Uitzichtpunt - View point - Point de Vue - Majon (D50) langs de L&#39;Anglin bij &#39;Le Bois d&#39;Haut&#39;&#39;",2012,5
87454511,46.6424,0.934407,"2012-05-17 17:40:30","Majon (D50) langs de L&#39;Anglin bij &#39;Le Bois d&#39;Haut&#39;&#39; - This is not an easy way up.",2012,5
87454513,46.6424,0.934407,"2012-05-17 17:40:35","Majon (D50) langs de L&#39;Anglin bij &#39;Le Bois d&#39;Haut&#39;&#39; - This is not an easy way up.",2012,5
87454515,46.6424,0.934407,"2012-05-17 17:44:06","Majon (D50) langs de L&#39;Anglin bij &#39;Le Bois d&#39;Haut&#39;&#39; - This is not an easy way up.",2012,5
98979760,46.49,1.92181,"2013-10-29 13:41:58","            Un muret gaulois dans le Parc naturel des Parelles          ",2013,10
98979759,46.49,1.92181,"2013-10-29 13:54:07","            Parc naturel des Parelles          ",2013,10
84076845,48.7518,1.08421,"2012-12-29 12:01:44","Forêt de bouleaux",2012,12
98110967,46.801,2.2045,"2013-07-07 11:01:40","            La Celle-Condé - Eglise Saint-Denis          ",2013,7
86242913,46.9394,1.43669,"2013-02-17 15:38:45","Argy",2013,2
86242988,46.9393,1.43618,"2013-02-17 15:36:38","Chateau d&#39;Argy",2013,2
86243023,46.9392,1.43716,"2013-02-17 15:38:34","Argy",2013,2
95208438,46.9471,1.43526,"2013-08-25 14:33:02","            Fête de la moto - Argy Indre (36)          ",2013,8
95788521,46.938,1.43678,"2013-09-03 16:46:46","            Château Argy Indre (36)  région Centre          ",2013,9
80211765,47.5778,2.91304,"2012-10-06 05:44:34","45-Thou",2012,10
107041607,47.5789,2.90628,"2014-05-04 12:11:24","            45 Thou - Pigeonnier Château          ",2014,5
81671423,48.8032,1.37063,"2012-11-05 18:22:26","Ruines du château de la Robertière",2012,11
84975809,48.7822,1.44022,"2013-01-20 07:06:15","The snow by night.",2013,1
87228271,48.789,1.44112,"2012-11-25 17:57:09","Abondant par les champs .",2012,11
89047845,48.7886,1.3991,"2013-04-18 15:03:25","Monument",2013,4
89047893,48.7887,1.39913,"2013-04-18 15:03:54","Monument",2013,4
91263007,48.7839,1.43923,"2013-03-07 01:36:23","Brain storming  . Winter 2013",2013,3
92535319,48.7874,1.44159,"2013-06-30 13:37:25","28-Abondant",2013,6
94520440,48.8064,1.40694,"2013-08-07 11:14:54","            good looking roundabout          ",2013,8
68324035,47.5568,2.84143,"2012-02-12 10:31:03","Untitled",2012,2
77968594,47.5505,2.84699,"2012-08-26 16:13:34","Distance sign",2012,8
100139410,47.5982,2.8253,"2013-11-24 16:26:37","            La Puisaye          ",2013,11
108462328,47.5836,2.80022,"2014-06-01 09:11:27","            La Loire           ",2014,6
108462379,47.5834,2.80073,"2014-06-01 09:11:46","            La Loire          ",2014,6
108462386,47.5829,2.80102,"2014-06-01 09:40:52","            La Loire          ",2014,6
104830040,47.1611,0.918415,"2014-03-22 11:30:58","            Vue panoramique          ",2014,3
78879519,47.2043,1.02558,"2012-05-27 14:53:16","37-Saint Quentin sur Indrois",2012,5
80872431,47.2015,1.02233,"2012-10-15 11:47:04","Untitled",2012,10
70628155,46.6235,1.54617,"2012-04-14 16:29:03","l&#39;Occitane →A20 ",2012,4
98030891,46.6277,1.5498,"2013-10-18 12:47:40","            TENDU  Le château de la ROCHEROLLE  INDRE   FRANCE          ",2013,10
98030898,46.6302,1.56379,"2013-10-18 12:51:10","            TENDU  La tour de prunget   indre  france          ",2013,10
101412043,46.6324,1.56881,"2013-10-18 12:51:10","            TENDU Indre 36000 &lt;&lt; La tour de prunget &gt;&gt;          ",2013,10
102114050,46.6317,1.56614,"2014-01-17 15:21:56","            FRANCE  TENDU  36000 La tour de PRUNGET          ",2014,1
102114065,46.6307,1.56688,"2014-01-17 15:22:59","            TENDU  La tour de PRUNGET  Indre 36  france          ",2014,1
102679970,46.6262,1.54877,"2014-02-03 11:22:43","            TENDU 36000  Le château de la ROCHEROLLE          ",2014,2
103028394,46.6364,1.53927,"2013-12-30 13:58:53","            Tendu, France          ",2013,12
103028675,46.6278,1.54297,"2013-12-30 13:59:06","            Tendu, France          ",2013,12
103153511,46.6224,1.58117,"2014-01-08 17:37:05","            Tendu, France          ",2014,1
84002901,47.2551,1.49457,"2012-03-30 17:46:13","MEUSNES-  vue du Nord sur le centre du Bourg",2012,3
76183047,47.1611,0.473292,"2012-06-20 16:09:21","L&#39;Abbaye de Tranchelion",2012,6
77152152,47.1563,0.447782,"2012-07-21 19:49:25","Untitled",2012,7
77152200,47.1607,0.473998,"2012-07-21 19:45:33","Avon-les-Roches",2012,7
88468304,47.1568,0.448621,"2013-01-09 15:19:33"," Avon-les-Roches",2013,1
94285604,47.1568,0.448943,"2013-08-03 16:45:41","            Avon les roches          ",2013,8
103523064,47.1749,0.456544,"2014-02-03 14:20:51","            Avon-les-Roches, France          ",2014,2
106918332,47.1721,0.447779,"2014-04-20 17:46:58","            Champ de blé près du Puy Chauveau          ",2014,4
106958999,47.161,0.474129,"2014-04-20 18:19:36","            Hameau de hobbits près des Roches Tranchelion...          ",2014,4
65885832,48.0703,1.32873,"2012-01-28 11:22:09","Fontaine monumentale, place du 18 octobre, à CHATEAUDUN (28).",2012,1
65886023,48.0703,1.32869,"2012-01-28 11:22:39","Hôtel de Ville de CHATEAUDUN (Eure-et-Loir).",2012,1
65886944,48.0716,1.3283,"2012-01-28 11:28:06","Monument des Francs-tireurs de 1870, à CHATEAUDUN (28).",2012,1
65887159,48.0715,1.32765,"2012-01-28 11:29:42","Le château de CHATEAUDUN (Eure-et-Loir).",2012,1
65887416,48.0716,1.32794,"2012-01-28 11:30:31","L&#39;église St-Jean-de-la-Chaîne, à CHATEAUDUN (28).",2012,1
65905735,48.0709,1.32645,"2012-01-28 11:33:35","La rue Dodun à CHATEAUDUN (Eure-et-Loir).",2012,1
65906059,48.0704,1.32459,"2012-01-28 11:37:22","Le château de CHATEAUDUN (Eure-et-Loir).",2012,1
65906364,48.0705,1.32411,"2012-01-28 11:38:40","Le château de CHATEAUDUN (Eure-et-Loir).",2012,1
65906565,48.0705,1.32422,"2012-01-28 11:38:57","L&#39;aile Longueville du château de CHATEAUDUN (28).",2012,1
65906805,48.0705,1.32416,"2012-01-28 11:39:29","La chapelle du château de CHATEAUDUN (28).",2012,1
65907060,48.0702,1.32362,"2012-01-28 11:41:54","Le donjon et la chapelle du château de CHATEAUDUN (28).",2012,1
65907329,48.0701,1.32365,"2012-01-28 11:42:56","Vestiges de l&#39;église St-Lubin, à CHATEAUDUN (28).",2012,1
65947333,48.0699,1.32386,"2012-01-28 11:43:59","Porte ancienne, ruelle St-Lubin, à CHATEAUDUN (28).",2012,1
65947533,48.0698,1.32391,"2012-01-28 11:45:18","La rue St-Lubin, à CHATEAUDUN (28).",2012,1
65947757,48.07,1.32492,"2012-01-28 11:47:36","Maison Louis Esnault (XVIème siècle), à CHATEAUDUN (28).",2012,1
65947947,48.0693,1.3251,"2012-01-28 11:49:47","Eglise-abbatiale de la Madeleine, à CHATEAUDUN (Eure-et-Loir).",2012,1
65948208,48.0692,1.32496,"2012-01-28 11:51:15","L&#39;Hôtel Dieu, à CHATEAUDUN (Eure-et-Loir).",2012,1
65948491,48.0693,1.32501,"2012-01-28 11:52:31","Maison du XVIème siècle, à CHATEAUDUN (28).",2012,1
65948878,48.0692,1.32318,"2012-01-28 11:56:23","Le château de CHATEAUDUN (Eure-et-Loir).",2012,1
65952319,48.069,1.32332,"2012-01-28 11:58:11","Les jardins de l&#39;Hôtel Dieu, à CHATEAUDUN (28).",2012,1
65952469,48.0689,1.32348,"2012-01-28 11:58:33","La statue de St-Vincent-de-Paul, dans les jardins de l&#39;Hôtel Dieu, à CHATEAUDUN (28).",2012,1
65952984,48.0681,1.33403,"2012-01-28 12:33:23","L&#39;ancienne chapelle Notre-Dame-du-Champdé, à CHATEAUDUN (28).",2012,1
67142808,48.0703,1.32412,"2012-02-19 11:16:28","tour coté est",2012,2
67142828,48.0704,1.32399,"2012-02-19 11:16:43","chateau coté est",2012,2
67142848,48.0702,1.32382,"2012-02-19 11:17:14","chateau coté est",2012,2
67142865,48.0703,1.32391,"2012-02-19 11:17:38","chateau coté est",2012,2
67142881,48.0704,1.32425,"2012-02-19 11:17:47","chateau coté est",2012,2
67142900,48.0734,1.32174,"2012-02-19 11:23:25","chateau coté sud",2012,2
68562789,48.0704,1.3247,"2012-03-15 10:39:12","Cloître Saint Roch Châteaudun",2012,3
68615891,48.0703,1.32467,"2012-03-15 10:41:41","Château de Châteaudun",2012,3
70217789,48.0686,1.32301,"2012-04-12 16:21:32","Bienvenue à nouveau!",2012,4
71210661,48.0707,1.32819,"2012-04-12 16:37:50","&quot;Horloge Française&quot; :)",2012,4
72412530,48.0684,1.32613,"2012-05-12 01:30:58","Châteaudun.",2012,5
74429436,48.072,1.32385,"2012-06-04 21:28:50","Le Loir à Châteaudun",2012,6
74429516,48.0681,1.33421,"2012-06-04 21:57:32","Cimetiere de Châteaudun - Chapelle Notre-Dame-du-Champdé",2012,6
74429581,48.0711,1.32246,"2012-06-04 21:20:35","chateau de Châteaudun",2012,6
74429678,48.0717,1.32824,"2012-06-04 21:41:58","Vue sur le Loir",2012,6
75106709,48.0709,1.32398,"2012-07-08 14:28:47","chateau de chateaudun",2012,7
75106721,48.0709,1.32396,"2012-07-08 14:28:59","chateau de chateaudun",2012,7
75106725,48.0709,1.32404,"2012-07-08 14:29:05","chateau de chateaudun",2012,7
75106733,48.0708,1.32347,"2012-07-08 14:29:15","chateau de chateaudun",2012,7
75106753,48.0707,1.32362,"2012-07-08 14:29:25","chateau de chateaudun",2012,7
75106765,48.0699,1.32453,"2012-07-08 15:13:07","maison L ESNAULT chateaudun",2012,7
75106900,48.0693,1.32566,"2012-07-08 15:18:08","Untitled",2012,7
75106913,48.0699,1.32449,"2012-07-08 15:12:57","maison L ESNAULT chateaudun",2012,7
75106917,48.0692,1.32324,"2012-07-08 15:41:20","chateau de chateaudun",2012,7
77969536,48.0709,1.3236,"2012-08-08 09:48:26","Châteaudun",2012,8
77969625,48.0709,1.32419,"2012-08-08 09:49:36","Châteaudun",2012,8
77969708,48.0689,1.32497,"2012-08-08 13:18:43","Châteaudun",2012,8
77969793,48.0699,1.32318,"2012-08-08 13:26:10","Châteaudun",2012,8
77969878,48.069,1.3249,"2012-08-08 13:19:54","Châteaudun",2012,8
77970688,48.0723,1.32506,"2012-08-08 15:24:50","Châteaudun",2012,8
77970758,48.0714,1.32253,"2012-08-08 15:38:56","Châteaudun",2012,8
79234203,48.0709,1.32383,"2012-09-15 16:29:34","chateau chateaudun",2012,9
79234214,48.0706,1.32416,"2012-09-15 16:43:38","chateau chateaudun",2012,9
79234224,48.0708,1.32394,"2012-09-15 16:43:52","chateau chateaudun",2012,9
79234231,48.0709,1.32418,"2012-09-15 16:43:58","chateau chateaudun",2012,9
85616254,48.0702,1.32455,"2013-01-17 13:49:35","Au numéro 13",2013,1
85616262,48.0699,1.32902,"2013-01-17 14:56:29","Hotel St Michel.",2013,1
87871864,48.076,1.3452,"2012-01-07 18:33:31","Tour &quot;verte&quot;. Beauvoir, Châteaudun",2012,1
87872055,48.0775,1.34536,"2012-01-07 21:28:34","Quartier Beauvoir, renové ",2012,1
87872973,48.0752,1.3587,"2012-01-07 15:57:26","Hélicoptère au centre hospitalier de Châteaudun",2012,1
87873134,48.0691,1.32437,"2012-01-07 16:48:08","Châteaudun",2012,1
87874468,48.0668,1.32299,"2012-01-07 16:49:32","Les Récollets Châteaudun (commune de La Chapelle du Noyer)",2012,1
88539512,48.0685,1.3136,"2012-02-06 09:52:39","Untitled",2012,2
88544355,48.0687,1.31435,"2012-02-06 09:52:46","Untitled",2012,2
88544488,48.0689,1.31604,"2012-02-06 09:52:59","Untitled",2012,2
88544620,48.0698,1.32074,"2012-02-06 09:53:37","Untitled",2012,2
88544636,48.0698,1.32096,"2012-02-06 09:53:41","Untitled",2012,2
88544651,48.0697,1.32089,"2012-02-06 09:53:41","Untitled",2012,2
90391520,48.0756,1.30304,"2013-05-16 16:38:08","chateaudun en couleur",2013,5
91243045,48.0596,1.37539,"2013-06-02 17:54:52","AOM_BLEU BLANC ROUGE 2013_06",2013,6
91243067,48.0602,1.37329,"2013-06-02 17:48:51","AOM_BLEU BLANC ROUGE 2013_06",2013,6
91243106,48.0599,1.36376,"2013-06-02 17:27:37","AOM_BLEU BLANC ROUGE 2013_06",2013,6
92629605,48.068,1.33428,"2013-06-15 07:40:34","283. Old church facade in Chateaudun..JPG",2013,6
92629639,48.0693,1.32492,"2013-06-15 08:05:12","286. The old quarter of Chateaudun..JPG",2013,6
92629661,48.0692,1.32497,"2013-06-15 08:05:12","287. Same photo, cropped..JPG",2013,6
92629741,48.0721,1.32372,"2013-06-15 08:17:58","289. Chateaudun, River Loir..JPG",2013,6
92629774,48.0718,1.32252,"2013-06-15 08:23:50","290. Chateaudun, River Loir..JPG",2013,6
92629806,48.0694,1.32287,"2013-06-15 08:30:19","291. Back to the old quarter, the gardens..JPG",2013,6
92629838,48.0691,1.32282,"2013-06-15 08:31:28","292. Chateaudun Chateau from the gardens..JPG",2013,6
92629852,48.0694,1.32606,"2013-06-15 08:33:53","293. Worried that their ultra thin chimney is not safe..JPG",2013,6
92640923,48.0706,1.32379,"2013-07-01 12:04:30","Chateaudun - Donjon Thibaud-V",2013,7
92683132,48.0703,1.32868,"2013-07-01 11:33:39","Chateaudun - Sleeping windows",2013,7
92683163,48.0705,1.32385,"2013-07-01 11:51:41","Chateaudun - Castle &amp; Flowers",2013,7
92683192,48.0702,1.32866,"2013-07-01 11:37:08","Chateaudun - Windows lines",2013,7
92683421,48.069,1.32585,"2013-07-01 11:18:01","Chateaudun - L&#39;église de la Madeleine émerge",2013,7
92683517,48.0703,1.32449,"2013-07-01 11:56:52","Chateaudun - Castle reflection in coach windscreen",2013,7
92683648,48.0726,1.35416,"2013-07-01 14:08:29","Soldes d&#39;été :  -50% sur les bulldozers!",2013,7
92862646,48.0687,1.32524,"2013-07-07 19:04:45","Chateaudun - Inside La Madeleine church",2013,7
92862703,48.0706,1.32761,"2013-07-07 18:26:10","Chateaudun - Medieval Feast end of day",2013,7
92862780,48.0687,1.32521,"2013-07-07 21:13:12","Chateaudun - Eglise de la Madeleine",2013,7
92862963,48.0706,1.32767,"2013-07-07 18:26:34","Chateaudun- Medieval Feast end of day 2",2013,7
92863066,48.0688,1.32536,"2013-07-07 20:30:24","Chateaudun, La Madeleine - Stairway to Heaven",2013,7
92863206,48.0688,1.32532,"2013-07-07 21:23:24"," La Madeleine - &#39; Contreflore&#39;",2013,7
92863753,48.0687,1.32532,"2013-07-07 21:11:31","La Madeleine et son  Pignon Ouest particulier",2013,7
92863941,48.0706,1.32407,"2013-07-07 21:50:54","Chateaudun - Sunset on Castle",2013,7
92863972,48.0705,1.32362,"2013-07-07 21:55:54","Chateaudun - Le Donjon en &quot; vue d&#39;assaillant &quot;!",2013,7
92906419,48.0688,1.32524,"2013-07-07 21:02:40","Chateaudun - In La Madeleine Church",2013,7
92906598,48.0705,1.32353,"2013-07-07 22:06:34","End of a Feast day : The Bench re-find quietness under the dark silhouette of Thibaud&#39;s Tower",2013,7
92907233,48.0704,1.32866,"2013-07-07 22:26:20","Chateaud&#39;onkey  By Night !",2013,7
92909066,48.0687,1.3254,"2013-07-07 21:20:39","Chateaudun - Contre plongée sur Lampadaire et La Madeleine",2013,7
92909123,48.0705,1.32357,"2013-07-07 21:51:27","Chateaudun - A Castle, a Sunset and Crows",2013,7
92909221,48.0705,1.32722,"2013-07-07 18:35:00","Soldes : Chercher les Prix cassés, peut devenir..... Casse-Pieds !",2013,7
92996726,48.0687,1.32531,"2013-07-07 20:46:46","Petit Clocher 3  -   ...Ou, encore ceci !",2013,7
92996789,48.0686,1.32534,"2013-07-07 20:36:31","Petit Clocher  2  - ... C&#39;est aussi cela !",2013,7
92996896,48.0686,1.3254,"2013-07-01 11:18:29","Petit Clocher  1 -  ... Qui semble se réveiller...",2013,7
92998822,48.0703,1.32866,"2013-07-07 22:28:58","La nuit Dunoise a des oreilles...",2013,7
92999042,48.0703,1.32379,"2013-07-07 21:47:37","Un descendant du Bâtard  d&#39;Orléans ?",2013,7
93167429,48.0705,1.32368,"2013-07-01 11:53:56","Chateaudun - Place du château",2013,7
93167511,48.0704,1.32334,"2013-07-11 18:28:22","Sud Ouest de l&#39;Aile de Dunois",2013,7
93167647,48.0684,1.32503,"2013-07-11 18:27:54","Petit Clocher  4  - ... C&#39;est tout Cela !",2013,7
93239352,48.0689,1.32528,"2013-07-07 21:35:13","Near Church Cat -1 - A-t-il compté tous les visiteurs de la Fête ?",2013,7
93239409,48.0688,1.32527,"2013-07-07 21:36:06","Near Church Cat 2 - ..Et rêvé de transformer ce chiffre en ... Poissons ?!",2013,7
93239454,48.0698,1.32442,"2013-07-07 21:42:44","Fin de jour, fin de fête sur la rue St Lubin",2013,7
93289640,48.0705,1.32722,"2013-07-01 11:39:47","Blue Street Fantasy",2013,7
93289670,48.0693,1.32837,"2013-07-01 11:23:21","A Panorama Bench... &amp; Now, a Panoramio... One !",2013,7
93290137,48.0644,1.33263,"2013-07-11 18:00:29","Une Moto-mât !",2013,7
93290159,48.0701,1.32355,"2013-07-07 21:54:03","Les Latrines, Collection Eté 2013 !",2013,7
93701376,48.0686,1.32533,"2013-07-11 18:17:01","La Madeleine deux fois &quot;capturée&quot;....",2013,7
93701530,48.0705,1.3236,"2013-07-11 18:21:28","Un Donjon sur sa Terrasse !...",2013,7
93702231,48.0686,1.3253,"2013-07-11 18:18:41","Un Mur XXème &amp; des Murs Médiévaux...",2013,7
94039099,48.0704,1.32361,"2013-07-11 18:28:37","            Chateaudun - Médiévertical  ...          ",2013,7
94039186,48.0697,1.32467,"2013-07-20 15:48:11","            Le Donjon &amp; La Madeleine veillent sur les champs...          ",2013,7
94225593,48.0686,1.32534,"2013-07-07 20:28:07","            La Madeleine - Stairway to Heaven 2          ",2013,7
94387317,48.07,1.32476,"2013-07-01 12:11:16","            Châteaudun - Quartier historique          ",2013,7
94387425,48.0687,1.32532,"2013-07-01 12:19:36","            Un balcon sur la Madeleine...          ",2013,7
94448472,48.0708,1.32311,"2013-08-10 18:55:26","            10 Août - Je garde un oeil sur &quot;mon&quot; Donjon &amp; ses 800 ans ! A côté de lui, j&#39;ai l&#39;impression d&#39;avoir 5 ans !...( pour M-F &amp; Dam&#39; )          ",2013,8
94448554,48.0708,1.32335,"2013-08-10 18:37:25","            Les blés tombent, le château demeure, immuablement beau...          ",2013,8
94501984,48.0706,1.32282,"2013-08-10 18:28:30","            Vus du ras de la Paille, le Château et la Madeleine          ",2013,8
94502190,48.0706,1.32362,"2013-08-09 22:24:21","            Black Blue Feodal Fantasy.... ...   9 Août, 22 h 24...          ",2013,8
94502275,48.0705,1.32357,"2013-08-10 18:25:49","            Panoramédieval....Trois Eglises &amp; Un Château...          ",2013,8
94710987,48.0702,1.32851,"2013-08-15 17:20:29","            Fontaine de Chateaudun          ",2013,8
95112805,48.0702,1.32866,"2013-07-01 09:55:25","            Old Tall House, Reflexion...          ",2013,7
95330978,48.0686,1.32533,"2013-08-26 17:01:40","            Un Rayon de Lumière  dans La Madeleine (3)          ",2013,8
95331038,48.0687,1.3253,"2013-08-26 16:44:41","            Un Rayon de Lumière dans La Madeleine  (2)          ",2013,8
95331096,48.0687,1.32538,"2013-08-26 17:04:59","            Un Rayon de Lumière dans La Madeleine (1)          ",2013,8
95382092,48.0687,1.32538,"2013-08-26 17:02:47","            Effleurer, Avec l&#39;Ombre d&#39;une Main, des pierres de   800 Ans...          ",2013,8
95476789,48.0768,1.34966,"2013-08-26 19:21:27","            Verticales  &amp;  Diagonales...   -  26 Août 2013          ",2013,8
95476922,48.0767,1.34969,"2013-08-26 19:13:44","            &quot; Escalier &quot; d&#39;ombres vers la Tour Bleue -  26 Août 2013          ",2013,8
95476965,48.0768,1.34973,"2013-08-26 19:12:43","            Tourbleue   et Pastourbleue !......      ( Pour Jérome  B. ) -----------   26 août 2013          ",2013,8
95817407,48.0704,1.32368,"2013-09-01 19:14:04","            L&#39;Aile Jehan de Dunois &amp; le Donjon, contemplés par les Roses...          ",2013,9
95817437,48.0705,1.32364,"2013-09-01 20:33:55","            Dark Tower &amp; Flowers          ",2013,9
95818203,48.0709,1.32368,"2013-08-26 19:40:15","            Soir d&#39;Août - (3)  Sur un Eperon Rocheux...          ",2013,8
95861465,48.0704,1.32454,"2013-08-15 14:56:21","            France, chateau de Chateaudun          ",2013,8
96253029,48.0765,1.34559,"2013-06-24 19:40:15","            Au quartier Beauvoir          ",2013,6
96256170,48.0779,1.34758,"2013-06-24 10:54:42","            La place du Phénix          ",2013,6
96256209,48.0775,1.34814,"2013-06-24 10:54:42","            La place du Phénix          ",2013,6
96256350,48.0771,1.34844,"2013-06-24 10:54:29","            Le quartier Beauvoir, dans les premières étapes de sa reconstruction          ",2013,6
96259757,48.069,1.3254,"2013-07-14 17:57:12","            Châteaudun - Eglise de la Madeleine          ",2013,7
96277849,48.0703,1.32412,"2013-09-01 20:10:40","            2 - Ambiance... Au ras du Pavé...          ",2013,9
96410324,48.0711,1.32363,"2013-09-05 20:21:15","            Sunset sur le Château de... la Belle au Bois dormant ?          ",2013,9
96687985,48.071,1.33801,"2013-09-20 18:04:40","            ... ! Et, derrière c&#39;est Briquetterie.. ça rime aussi !          ",2013,9
96688613,48.071,1.32326,"2013-09-20 19:24:12","            Fier Château &amp; ses machicoulis          ",2013,9
96688688,48.0715,1.32312,"2013-09-20 19:08:28","            Sunset sur un Banc          ",2013,9
96688724,48.071,1.32328,"2013-09-20 19:33:08","            Face Nord de l&#39;Aile Jehan de Dunois &amp; une petite....Fleur à ses pieds...          ",2013,9
96791573,48.0705,1.32361,"2013-09-01 19:06:52","            L&#39;Aile du XVème s&#39;Ombreporte sur les Pierres du XIIème...          ",2013,9
96911613,48.0704,1.32314,"2013-09-05 09:28:52","            Entrada al castillo de Châteaudun (Francia).          ",2013,9
96911883,48.0704,1.32317,"2013-09-05 09:43:06","            Vista del castillo de Châteaudun (Francia).          ",2013,9
96912149,48.0703,1.32317,"2013-09-05 09:31:09","            Torreón del castillo de Châteaudun (Francia).          ",2013,9
96912293,48.07,1.32373,"2013-09-05 09:35:23","            El número 13, antiquísima puerta, Châteaudun (Francia).          ",2013,9
96912559,48.0697,1.32376,"2013-09-05 09:38:31","            Antiguo portalón, Châteaudun (Francia).          ",2013,9
96912697,48.0697,1.32331,"2013-09-05 09:39:34","            Zona antigua de Châteaudun (Francia).          ",2013,9
96913086,48.0691,1.32349,"2013-09-05 09:45:09","            Busto de San Vicente de Paul, Châteaudun (Francia).          ",2013,9
96913233,48.069,1.32466,"2013-09-05 09:47:03","            L&#39;Hòtel Dieu y artesanía de Pierre Tual, Châteaudun (Francia).          ",2013,9
96913348,48.069,1.32477,"2013-09-05 09:47:55","            Iglesia de la Magdalena, Châteaudun (Francia).          ",2013,9
96913571,48.0693,1.33025,"2013-09-05 09:55:21","            Monumento a los prisioneros de la guerra, Châteaudun (Francia).          ",2013,9
96913728,48.0703,1.32834,"2013-09-05 10:04:31","            Ayuntamiento de Châteaudun (Francia).          ",2013,9
97271821,48.0709,1.32326,"2013-09-20 19:23:33","            Vendredi Soir, sur un Contrefort Comtal...          ",2013,9
97508077,48.0707,1.32355,"2013-08-10 18:54:11","            Postcard d&#39;Eté : Mes Lunettes, Mon Château, ma Plage...          ",2013,8
97710815,48.0709,1.33733,"2013-10-10 15:53:39","            Le Donjon Emerge &amp; Respire au-dessus du Fourbibétontallique !          ",2013,10
98014170,48.0723,1.33141,"2013-09-05 20:00:25","            Dans une Pente à 13%, ça porte Chance de se Tenir mutuellement !---- Et ils vécurent treize heureux ...!          ",2013,9
98115398,48.0705,1.32477,"2013-07-07 22:15:10","            Ruelle Médiévale qui atteste qu&#39;en ces Temps, ils ne mangeaient pas chez Mc Do !          ",2013,7
98115744,48.0706,1.32344,"2013-07-07 21:45:15","            Chateaudun - Magic moment near the Castle...          ",2013,7
98203465,48.071,1.32492,"2013-09-20 18:59:19","            2 - Des Marches  : Tu en as donc descendues 170...... Mais, T&#39;aurais pas oublié ton Pain sur le Banc, là haut ??!...          ",2013,9
98203549,48.0712,1.32407,"2013-09-20 18:59:07","            1 - Des Marches : Il t&#39;en restent 30 à descendre Papy !          ",2013,9
98292908,48.0703,1.32863,"2013-07-07 18:19:58","            Le Lama : &quot;J&#39;hésite entre 3 Croissants chauds &amp; un Bras tout Frais!...&quot;          ",2013,7
98292988,48.0685,1.32523,"2013-07-07 20:28:31","            Stairway to Heaven 3          ",2013,7
98351436,48.0704,1.32862,"2013-07-07 21:39:05","            EUREKA X 2  ! J&#39;ai deux idées dans la tête, en même temps!          ",2013,7
98388210,48.0767,1.34952,"2013-10-24 15:24:10","            TOUR BLEUE - 24 Octobre 2013  -  (2)          ",2013,10
98388410,48.0768,1.34954,"2013-10-24 15:27:33","            TOUR BLEUE -  24 Octobre 2013          ",2013,10
98388524,48.0766,1.3496,"2013-10-17 18:08:52","            TOUR BLEUE - 17 Octobre 2013          ",2013,10
98389372,48.0767,1.34982,"2013-10-10 15:39:24","            TOUR BLEUE  -  10 octobre 2013          ",2013,10
98389475,48.0768,1.34962,"2013-09-20 18:13:54","            TOUR BLEUE -  20 Septembre 2013 - Face Sud          ",2013,9
98389659,48.0767,1.34962,"2013-07-20 17:30:34","            TOUR BLEUE - Face Ouest -  20 Juillet 2013          ",2013,7
98542684,48.0708,1.32308,"2013-09-20 19:27:24","            2 - &quot; Ca dépare le Château ! Je vais te l&#39;enlever !&quot;          ",2013,9
98542779,48.0709,1.32314,"2013-09-20 19:25:31","            1 - Le Pigeon : &quot; Eh, M.l&#39;Architecte Historique ! Il y a là, une pierre qui n&#39;est Pas d&#39;Epoque !&quot;          ",2013,9
98544106,48.0721,1.34555,"2013-10-19 18:35:40","            ...Avec du Pain au Lard ?          ",2013,10
98601529,48.0691,1.32526,"2013-07-07 21:37:17","            &quot; Arrête de me prendre en photo... Je suis timide !  Va shoter ton château, plutôt ! &quot;          ",2013,7
98625590,48.0703,1.32862,"2013-07-07 18:21:44","            Le Lama : &quot; Je rêve, les Rois Mages se sont transformés en Reines, &amp; il y en a une qui ressemble à Taubira !&quot;          ",2013,7
98945431,48.0705,1.32352,"2013-10-19 19:15:47","            War 2 - Mais la Tour de Thibaud V (1170) résiste encore &amp; toujours aux envahisseurs ! Ils étaient heureux au Moyen Age,ils n&#39;avaient ni les pollutions, ni l&#39;obsolescence progra",2013,10
98945522,48.0761,1.34742,"2013-11-07 16:31:20","            War 1 - 7 Novembre 2013 - Pour M/A: Après la chute de la Tour Bleue, les pilonnages ont repris sur la Tour Verte (1970) !          ",2013,11
98982630,48.0712,1.32271,"2013-10-31 17:23:57","            Castello di Chateaudun, ala di Longueville          ",2013,10
98982799,48.0703,1.32413,"2013-10-31 17:06:20","            vista panoramica del castello di Chateaudun          ",2013,10
99169621,48.0759,1.34758,"2013-11-07 16:19:04","            7 Novembre 2013 - Non, ce ne sont que des pigeons , dans leurs derniers jeux sur cette tôle verte...          ",2013,11
99169973,48.076,1.34733,"2013-11-07 16:29:08","            7 novembre 2013 -  Histoire(s) de Salles d&#39;eau en les années 1975...          ",2013,11
99170210,48.076,1.34754,"2013-11-07 16:23:41","            7 Novembre 2013 -  Des rapaces  survolant une mourante ?          ",2013,11
100223058,48.0764,1.34874,"2013-10-17 18:13:16","            17 Octobre 2013  - Reflet de fin de vie d&#39;une Tour          ",2013,10
100223324,48.0737,1.33218,"2013-09-05 19:59:32","            Un Balcon sur le Loir          ",2013,9
100305035,48.0719,1.33072,"2013-05-19 13:34:33","            28200 Châteaudun, France          ",2013,5
100574504,48.0703,1.32464,"2013-07-01 11:58:17","            BLUE TOUCH - 1  -  AUTO(CAR)PORTRAIT AVEC DE LA COULEUR, POUR DAMIR !          ",2013,7
100710062,48.0708,1.32389,"2013-09-05 20:22:49","            .Joyeux Elno !          ",2013,9
100847208,48.0726,1.3516,"2013-09-20 18:07:54","            MARIE FRANCE --- MERRY  X-MAS... &amp; NE T&#39;EMMÊLE PAS LES PINCEAUX EN 2014 ! ============          ",2013,9
100908736,48.0707,1.32377,"2013-10-19 19:35:15","            NEW  YEAR  WISHES  - 3  -          ",2013,10
100908936,48.0707,1.32389,"2013-09-01 20:09:20","            NEW YEAR  WISHES  - 1          ",2013,9
101034741,48.0768,1.34869,"2013-10-24 15:28:41","            TENDANCE 2014 --   ZOOM  SUR  LA  JUPE-PANNEAU,  NOUVELLE  MODE  à  CHATEAUDUN !          ",2013,10
101069078,48.0699,1.32392,"2013-04-14 13:08:03","            28200 Châteaudun, France          ",2013,4
101171277,48.0705,1.32364,"2013-09-01 20:19:18","            NEW YEAR WISHES  - 6  -          ",2013,9
101178732,48.0699,1.325,"2013-07-01 12:12:05","            1 JANVIER 2014   :  BONJOUR LES GUEULES DE BOIS !          ",2013,7
101178747,48.0765,1.34866,"2013-10-24 15:26:09","            CARTE DE VOEUX OPTIMISTE !          ",2013,10
101389373,48.0746,1.34479,"2013-07-11 18:44:27","            5 Janvier 2014 - Les Profs d&#39;Histoire, rangent leur Livre Rouge dans leur Sacoche Jaune....Demain, retour en classe, on oublie la Ficelle Picarde !          ",2013,7
101482076,48.0766,1.34911,"2013-10-24 15:27:08","            FOUILLES  ARCHEOLOGIQUES ...          ",2013,10
101561732,48.0688,1.32542,"2014-01-02 17:11:57","            AU-DESSUS DE  50 km/h, RAPPEL....... A .. DIEU  !...          ",2014,1
101875940,48.0767,1.349,"2013-10-24 15:28:19","            TENDANCE 2014  - TIC TAC Orange  &amp; TIC TAC  Citron ... Le Retour !          ",2013,10
101876093,48.0648,1.33827,"2013-10-24 15:40:16","            le FLBP a encore frappé !  (Front de Libération des Belles Pierres !)          ",2013,10
101915465,48.0688,1.32541,"2013-08-26 16:37:13","            Détails de La Madeleine - 3 -  Emouvante Dentelle de pierre, ayant traversé quelques mille ans ...          ",2013,8
101915578,48.0685,1.32529,"2013-08-26 16:52:45","            Détails de La Madeleine - 2 - &quot;Tant de Mains pour transformer ce Monde, et si peu de Regards pour le contempler..&quot;  -  Julien Gracq ( 1910-2007 )          ",2013,8
101915617,48.0686,1.3251,"2013-08-26 16:53:36","            Détails de La Madeleine - 1 -  Arc Boutant devenu... brisant !          ",2013,8
102213427,48.0698,1.32711,"2014-01-02 17:09:27","            Centre Ville   -   Une Pensée émue pour le Gars en Rouge, qui ne bosse qu&#39;en Décembre.... Mais quel Boulot !!!...          ",2014,1
102265461,48.0734,1.3375,"2013-10-19 17:24:39","            BIENVENU Chez  &quot; BOUFF&#39; AUTO GRILL ! &quot;          ",2013,10
102265630,48.0697,1.3245,"2013-08-26 16:35:52","            BON PIED, BON OEIL !          ",2013,8
102265670,48.0706,1.33673,"2014-01-25 17:20:50","            INFOS : Malgré l&#39;Interposition de la Maison des Solidarités, les Membres du Stand de Tir ont voulu s&#39;entraîner chez Pôle Emploi, afin de réveiller le personnel ... Nous ne savons s",2014,1
102871966,48.0725,1.33716,"2014-01-25 17:22:46","            Si vous Grimpez en Haut de ce Lampadaire, Vous n&#39;avez pas le droit d&#39;en Redescendre !          ",2014,1
103123884,48.0702,1.32769,"2013-07-01 11:35:21","             Chacun Cherche Chon Chat...eau  !          ",2013,7
103501145,48.0643,1.33252,"2014-01-02 16:51:21","            Ciel de moutons au-dessus de Nermont          ",2014,1
103612810,48.0724,1.32913,"2013-09-21 12:48:39","            Old door, Young eye...          ",2013,9
103802547,48.078,1.34791,"2014-01-04 10:50:28","            Place du Phénix          ",2014,1
103802585,48.0776,1.3457,"2014-01-02 09:55:59","            Quartier Beauvoir          ",2014,1
103802662,48.0885,1.33548,"2014-01-02 09:45:29","            Zone d&#39;activités des Garennes - Châteaudun          ",2014,1
103802751,48.0831,1.31296,"2014-01-02 09:43:09","            Rond point de St Jean - Châteaudun          ",2014,1
103802822,48.0856,1.31077,"2014-01-02 09:42:54","            Arrivée sur Châteaudun (D955)          ",2014,1
103802865,48.0902,1.30638,"2014-01-02 09:42:17","            La route de Brou à Châteaudun          ",2014,1
103802919,48.0978,1.29938,"2014-01-02 09:41:32","            La route de Brou à Châteaudun          ",2014,1
103803118,48.0781,1.34747,"2013-12-31 12:18:52","            Place du Phénix          ",2013,12
103803157,48.0706,1.3312,"2013-12-31 11:21:43","            Rue de la République, à Châteaudun          ",2013,12
103814998,48.0771,1.34579,"2013-12-30 11:49:09","            Beauvoir en rénovation / ANRU          ",2013,12
103820709,48.0767,1.34808,"2013-12-30 11:39:55","            Ici, se dressait la &quot;résidence Général de Gaulle&quot;, barre d&#39;immeuble de 5 entrées sur 5 niveaux, sur la place Raymond Lopez, elles ne sont plus          ",2013,12
103820763,48.0772,1.34771,"2013-12-30 11:37:22","            Feu la tour bleue          ",2013,12
103820788,48.0759,1.34917,"2013-12-30 11:35:56","            Quartier Beauvoir : la tour verte n&#39;est plus          ",2013,12
103820848,48.0726,1.34904,"2013-12-30 11:30:57","            Bd Kellermann          ",2013,12
103820877,48.0726,1.32205,"2013-12-30 11:09:06","            A Saint Jean          ",2013,12
103851243,48.0901,1.33451,"2013-12-26 19:03:57","            CC des Garennes          ",2013,12
103851362,48.0901,1.33445,"2013-12-26 19:03:42","            CC des Garennes - Châteaudun          ",2013,12
104803302,48.0688,1.32536,"2014-02-01 15:09:47","            Lumière d&#39;Hiver sur la Madeleine - Les petits nuages dansent entre l&#39;Eglise et l&#39;Hôtel Dieu          ",2014,2
104803369,48.069,1.32525,"2014-02-01 15:04:25","            Médiéval Auto Recto Verso !          ",2014,2
104803431,48.0686,1.32497,"2014-02-01 15:13:31","            Lumière d&#39;Hiver sur la Madeleine - Pignon Ouest          ",2014,2
104842855,48.0687,1.32542,"2014-02-01 15:54:29","            Ocres &amp; Turquoises en La Madeleine          ",2014,2
104842882,48.0687,1.3251,"2014-02-01 15:58:13","            La Madeleine - Portail Nord          ",2014,2
104842972,48.0686,1.32527,"2014-02-01 16:05:03","            L&#39;Or de la Madeleine...          ",2014,2
105496536,48.0687,1.34025,"2014-04-09 15:12:05","            L&#39; Epicerie a fini par sentir le Sapin !          ",2014,4
105496704,48.0733,1.31915,"2014-04-09 16:14:37","            A Beautiful Spring Day - 5 -          ",2014,4
105496728,48.0706,1.32372,"2014-04-09 17:14:31","            A Beautiful Spring Day - 4 -  Le Château sous la protection de La Madeleine &amp;  de... St Yellow !          ",2014,4
105535165,48.0708,1.32325,"2014-04-09 16:42:26","            Beautiful Spring Day - 2 -          ",2014,4
105615500,48.0687,1.32548,"2014-02-01 16:02:19","            600 ème Photo ! --- &quot;Le Mauvais goût, c&#39;est de confondre la mode qui ne vit que de changements, avec le beau durable...&quot; --Stendhal-----------------------Choeur de la Madelei",2014,2
105615634,48.0685,1.32538,"2014-02-01 16:00:43","            &quot;La perfection, ce n&#39;est pas de faire quelquechose de grand et de beau, mais de faire ce que l&#39;on fait avec grandeur et beauté..&quot;---Swami.Prajnanpad.---          ",2014,2
105852355,48.0735,1.33237,"2014-03-05 09:31:52","            28200 Châteaudun, France          ",2014,3
105852575,48.0735,1.33237,"2014-03-05 09:31:46","            28200 Châteaudun, France          ",2014,3
105852681,48.0736,1.33241,"2014-03-05 09:33:20","            28200 Châteaudun, France          ",2014,3
106132603,48.0957,1.29845,"2014-04-09 16:44:06","            Différents Arbres, s&#39;étalent sur la route.../ Various Trees, Lying on the Road...          ",2014,4
106133129,48.0705,1.32423,"2014-02-09 15:32:28","            Châteaudun 1          ",2014,2
106133140,48.0709,1.32399,"2014-02-09 15:43:12","            Châteaudun 2          ",2014,2
106133148,48.0709,1.324,"2014-02-09 15:47:26","            Châteaudun 3          ",2014,2
106133153,48.0709,1.32384,"2014-02-09 15:51:51","            Châteaudun 4          ",2014,2
106133169,48.0709,1.32342,"2014-02-09 15:54:03","            Châteaudun 5          ",2014,2
106133180,48.0709,1.32342,"2014-02-09 15:55:19","            Châteaudun 6          ",2014,2
106133188,48.071,1.32334,"2014-02-09 16:07:48","            Châteaudun 7          ",2014,2
106133200,48.0706,1.3234,"2014-02-09 16:15:16","            Châteaudun 8          ",2014,2
106133217,48.0699,1.32485,"2014-02-09 16:39:08","            Châteaudun 9          ",2014,2
106133236,48.0699,1.32485,"2014-02-09 16:39:43","            Châteaudun 10          ",2014,2
106270518,48.0724,1.32953,"2014-04-22 15:37:28","            Limite KT aux grottes du Foulon          ",2014,4
106270565,48.0706,1.32348,"2014-04-22 16:27:43","            Sainte chapelle           ",2014,4
106270596,48.0706,1.32363,"2014-04-22 16:31:57","            Fresque du jugement dernier          ",2014,4
106270702,48.071,1.32433,"2014-04-22 17:41:36","            Descente des 200 marches          ",2014,4
106270747,48.0694,1.32331,"2014-04-22 18:03:17","            Château de Châteaudun          ",2014,4
106295673,48.0706,1.32351,"2014-04-22 19:42:09","            Chateaudun -  Pigeon Comtal...          ",2014,4
106456074,48.0694,1.33861,"2014-04-22 19:21:52","            EN CHANSONS  : &quot; Je Marche Seul  !&quot;          ",2014,4
106456102,48.0706,1.33776,"2014-04-22 19:21:56","            EN CHANSONS  : &quot; I&#39;m a lonesome Cow-Boy... &quot;          ",2014,4
106456149,48.0707,1.3369,"2014-04-22 19:21:42","            EN CHANSONS  : &quot; Quand on Arrive en Ville  &quot;          ",2014,4
106669246,48.0719,1.33218,"2014-04-30 16:06:12","            Fin Avril  en Centre Ville - Pas de bouchons...mais des points noirs plus hauts !          ",2014,4
106803380,48.0705,1.3236,"2014-04-22 19:51:46","            Western light...just after Easter...          ",2014,4
107179706,48.0709,1.32402,"2014-04-22 19:34:37","            Quand les Touristes sonst parstis festoyer dans les Ausberges, il s&#39;en passent des choses au Châsteau...          ",2014,4
107179732,48.0705,1.33244,"2014-04-22 19:22:02","            En Chansons - 4 -  &quot;So far away, from Frisco....I&#39;m no one, but a shadow...&quot;          ",2014,4
107218218,48.0813,1.34166,"2014-05-09 17:54:23","            Brocante de la SPA -  Reflets...          ",2014,5
107218243,48.0819,1.34299,"2014-05-09 17:21:40","            Brocante de la SPA -  Paré pour une scène de Ménage?!...          ",2014,5
107218373,48.0817,1.34308,"2014-05-09 17:26:05","            Brocante de la SPA - Ton sur Ton          ",2014,5
107296629,48.071,1.32387,"2014-04-22 20:15:06","            Des nuages assaillant le Château...          ",2014,4
107532605,48.0707,1.32362,"2014-05-28 19:03:12","            &quot;Josly Mois de Mays ! -  Thibaud &amp; les...Rasades...d&#39;eau !!          ",2014,5
107572182,48.0701,1.32486,"2014-05-28 19:16:28","            Ca, C&#39;est de la Lecture de Façade !! --- A Chateaudun,  on fait Plus Fort qu&#39;à Voves !!           ",2014,5
107572226,48.0701,1.32386,"2014-05-28 18:47:00","            Après la pluie, les arbres cherchent à s&#39;enlacer          ",2014,5
107717226,48.0711,1.32407,"2014-05-31 12:19:04","            Chateaudun - Vue sur le Loir          ",2014,5
107717241,48.0725,1.32937,"2014-05-31 13:50:44","            Chateaudun - Grottes du foulon          ",2014,5
107717245,48.0708,1.32416,"2014-05-31 15:14:29","            Chateaudun - Château          ",2014,5
107717257,48.071,1.32334,"2014-05-31 16:33:50","            Chateaudun - Vue sur le Loir          ",2014,5
107725542,48.0714,1.32779,"2014-06-01 15:44:40","            Monument des Francs-Tireurs de 1870 (http://benjylecter.blogspot.com)          ",2014,6
107725606,48.0715,1.32292,"2014-06-01 17:21:46","            Pont enjambant le Loir (http://benjylecter.blogspot.com)          ",2014,6
107725642,48.0715,1.32298,"2014-06-01 17:22:10","            Lavoir (http://benjylecter.blogspot.com)          ",2014,6
107725697,48.0713,1.32273,"2014-06-01 17:23:48","            Château de Châteaudun (http://benjylecter.blogspot.com)          ",2014,6
107942103,48.0699,1.32363,"2013-07-06 17:23:33","            T&#39;va voir ta gueule à la récré....          ",2013,7
107942170,48.0692,1.3234,"2013-07-06 17:59:48","            Qui t&#39;a permis manant de faire flotter l&#39;étendart de la Normandie sur les terres du bâtard d&#39;Orléans ? Dunois, le valeureux compagnon de la Pucelle. (et de Gilles de Rais aussi",2013,7
107942268,48.0699,1.32468,"2013-07-06 17:50:11","            Châteaudun : rue St Lubin.          ",2013,7
108824737,48.0706,1.32276,"2014-06-25 19:14:02","            Le château de Châteaudun          ",2014,6
108824838,48.0704,1.32265,"2014-06-25 19:14:31","            Le château de Châteaudun          ",2014,6
108824900,48.0706,1.32277,"2014-06-25 19:14:35","            Le château de Châteaudun          ",2014,6
108824984,48.07,1.32303,"2014-06-25 19:15:43","            maison de la vièrge          ",2014,6
108825073,48.07,1.32324,"2014-06-25 19:16:08","            Maison de la vièrge          ",2014,6
108825217,48.0697,1.32352,"2014-06-25 19:17:16","            Maison ancienne          ",2014,6
108825283,48.0702,1.32363,"2014-06-25 19:17:40","            tour du château de Châteaudun          ",2014,6
108825386,48.0701,1.32363,"2014-06-25 19:18:55","            Eglise Saint-Lubin          ",2014,6
108825451,48.0703,1.32441,"2014-06-25 19:21:21","            Le château de Châteaudun          ",2014,6
108825501,48.0703,1.32475,"2014-06-25 19:21:55","            rue piétonne          ",2014,6
108825539,48.0703,1.32475,"2014-06-25 19:22:41","            tour du château de Châteaudun          ",2014,6
108825592,48.0705,1.32472,"2014-06-25 19:23:46","            Le château de Châteaudun          ",2014,6
108825679,48.0706,1.32471,"2014-06-25 19:24:33","            ruelle          ",2014,6
108825824,48.0712,1.32477,"2014-06-25 19:26:37","            escalier de la descente Saint Pierre          ",2014,6
108825908,48.0712,1.32466,"2014-06-25 19:27:15","            Le château de Châteaudun          ",2014,6
108825985,48.0712,1.32454,"2014-06-25 19:28:08","            Le château de Châteaudun          ",2014,6
108826056,48.0711,1.32481,"2014-06-25 19:29:08","            Le château de Châteaudun vu de la descente Saint Pierre          ",2014,6
108826110,48.0717,1.32428,"2014-06-25 19:30:14","            Le château de Châteaudun          ",2014,6
108826303,48.0719,1.32415,"2014-06-25 19:32:34","            canal          ",2014,6
108826434,48.0719,1.32418,"2014-06-25 19:33:35","            canards          ",2014,6
108826501,48.0718,1.32427,"2014-06-25 19:33:59","            Le château de Châteaudun          ",2014,6
108826628,48.072,1.32384,"2014-06-25 19:34:53","            nénuphars sur le Loir          ",2014,6
108826701,48.0724,1.32428,"2014-06-25 19:41:30","            canal          ",2014,6
108826749,48.0721,1.32375,"2014-06-25 19:43:12","            moulin          ",2014,6
108826828,48.0718,1.32428,"2014-06-25 19:44:44","            Le château de Châteaudun          ",2014,6
108826913,48.0719,1.32362,"2014-06-25 19:47:41","            moulin          ",2014,6
108826969,48.0718,1.32354,"2014-06-25 19:48:01","            pont sur le Loir          ",2014,6
108827166,48.0715,1.32287,"2014-06-25 19:48:43","            Le château de Châteaudun          ",2014,6
108827223,48.0715,1.32332,"2014-06-25 19:49:02","            Le château de Châteaudun          ",2014,6
108827232,48.0714,1.32319,"2014-06-25 19:50:30","            Le château de Châteaudun          ",2014,6
108827241,48.0713,1.32306,"2014-06-25 19:54:35","            poissons dans le bassin          ",2014,6
108827251,48.0713,1.32282,"2014-06-25 19:55:29","            mémorial aux soldats américains morts à Châteaudun          ",2014,6
108827281,48.0713,1.32284,"2014-06-25 19:56:27","            Le château de Châteaudun          ",2014,6
108827301,48.0713,1.32281,"2014-06-25 19:56:36","            Le château de Châteaudun          ",2014,6
108827321,48.071,1.3228,"2014-06-25 19:57:33","            grottes sous le château de Châteaudun          ",2014,6
108827344,48.071,1.32276,"2014-06-25 19:57:52","            Le château de Châteaudun          ",2014,6
108827366,48.0711,1.32287,"2014-06-25 19:57:59","            Le château de Châteaudun          ",2014,6
108863520,48.0727,1.3504,"2014-06-25 19:27:44","            &quot; Toi et ton Cheval fiscal, prends garde, si tu n&#39;as pas mis ta ceinture ( de chasteté ?) et ta côte de maille jaune fluo ! Tu vas sentir l&#39;épée !          ",2014,6
108863538,48.0727,1.35052,"2014-06-25 19:26:42","            25 Juin 2014... un nouveau gardien à l&#39;entrée de la Ville...          ",2014,6
108934145,48.0712,1.33737,"2014-06-30 19:16:40","            &quot; Hé Transbeauce attention ! Si tu démarre au feu rouge, je vais te transformer en &quot;Transbosse&quot; !          ",2014,6
108934901,48.0714,1.33767,"2014-06-30 19:22:49","            Etre Décalé ou ne pas Etre !          ",2014,6
70512558,47.5139,2.00833,"2012-02-07 18:26:16","Challes",2012,2
70512569,47.5139,2.00833,"2012-02-21 18:13:49","Challes",2012,2
72361143,47.5303,2.04534,"2012-01-10 18:18:21","nouan le fuzelier",2012,1
79372360,47.5358,2.03553,"2012-09-19 17:08:07","L&#39;EGLISE DE NOUAN-LE-FUZELIER",2012,9
79372370,47.536,2.03559,"2012-09-19 17:08:25","L&#39;EGLISE DE NOUAN-LE-FUZELIER",2012,9
79372377,47.5352,2.03493,"2012-09-19 17:09:55","AVENUE DE TOULOUSE",2012,9
79372387,47.5337,2.03464,"2012-09-19 17:12:59","NOUAN-LE-FUZELIER",2012,9
79372398,47.5331,2.0355,"2012-09-19 17:13:43","NOUAN-LE-FUZELIER",2012,9
79372425,47.5333,2.03429,"2012-09-19 17:15:27","NOUAN-LE-FUZELIER",2012,9
79372410,47.5332,2.03505,"2012-09-19 17:14:12","NOUAN-LE-FUZELIER",2012,9
79372444,47.5333,2.03427,"2012-09-19 17:15:40","NOUAN-LE-FUZELIER",2012,9
79372457,47.5333,2.03389,"2012-09-19 17:16:33","NOUAN-LE-FUZELIER",2012,9
79372497,47.5339,2.03373,"2012-09-19 17:17:36","NOUAN-LE-FUZELIER",2012,9
79372514,47.534,2.03438,"2012-09-19 17:18:30","NOUAN-LE-FUZELIER",2012,9
79372477,47.5336,2.03378,"2012-09-19 17:17:02","NOUAN-LE-FUZELIER",2012,9
79372538,47.5339,2.03456,"2012-09-19 17:19:39","NOUAN-LE-FUZELIER",2012,9
79372555,47.5337,2.03465,"2012-09-19 17:20:00","NOUAN-LE-FUZELIER",2012,9
79372563,47.5337,2.03463,"2012-09-19 17:20:22","LA GARE DE NOUAN-LE-FUZELIER",2012,9
79372572,47.5347,2.03469,"2012-09-19 17:22:25","NOUAN-LE-FUZELIER",2012,9
79372584,47.535,2.03444,"2012-09-19 17:23:04","NOUAN-LE-FUZELIER",2012,9
79372526,47.534,2.03435,"2012-09-19 17:18:39","NOUAN-LE-FUZELIER",2012,9
79372593,47.535,2.03446,"2012-09-19 17:23:13","NOUAN-LE-FUZELIER",2012,9
79550360,47.5251,2.05547,"2012-08-19 08:18:01","Nouan-le-Fuzelier",2012,8
79550365,47.5252,2.05547,"2012-08-19 07:58:03","Nouan-le-Fuzelier",2012,8
92872692,47.5172,2.07642,"2013-06-14 09:15:33","Fields France Foggy",2013,6
101094078,47.5584,2.05419,"2013-12-25 15:15:26","            Route de Traçy          ",2013,12
107464926,47.535,2.03447,"2014-05-26 09:51:29","            Lavoir de Nouan le Fuzelier          ",2014,5
80354603,47.0286,0.433046,"2012-10-02 14:04:08","37 LUCE, St-Blaise.",2012,10
73654500,46.5123,1.59338,"2012-06-11 15:44:33","Gargilesse",2012,6
73654555,46.5131,1.59697,"2012-06-11 17:19:25","village de Gargilesse",2012,6
74084694,46.516,1.5995,"2012-06-11 18:53:06","croix au bord du chemin",2012,6
74084917,46.5133,1.5966,"2012-06-11 16:02:56","Gargilesse",2012,6
74085264,46.5126,1.59437,"2012-06-11 16:15:38","Gargilesse",2012,6
74085633,46.5134,1.59726,"2012-06-11 17:06:53","Gargilesse",2012,6
74085874,46.5123,1.6001,"2012-06-11 15:46:54","la gargilesse",2012,6
76156367,46.5136,1.59813,"2012-07-22 14:21:57","Gargilesse-Dampierre",2012,7
77171238,46.5137,1.5965,"2012-08-15 19:08:12","La maison où vécut Georges Sand",2012,8
77171247,46.5124,1.59637,"2012-08-15 18:02:22","Intérieur du pigeonnier",2012,8
77171253,46.5136,1.59656,"2012-08-15 17:10:51","Statue de Georges Sand",2012,8
77172569,46.513,1.59712,"2012-08-15 17:42:24","Vue depuis la cour du chateau",2012,8
80744420,46.5136,1.59536,"2012-09-19 14:05:03","Gargilesse - Musée",2012,9
80744496,46.5135,1.59588,"2012-09-19 14:07:19","Gargilesse - Village",2012,9
80744519,46.5135,1.59595,"2012-09-19 14:07:26","Gargilesse - Village",2012,9
80744589,46.5138,1.59703,"2012-09-19 14:10:41","Gargilesse - Village",2012,9
80744608,46.5139,1.59715,"2012-09-19 14:11:27","Gargilesse - Hôtel des Artistes",2012,9
80744644,46.5139,1.59755,"2012-09-19 14:12:43","Gargilesse - Maison de Leon DETROY et Aurore SAND",2012,9
80744802,46.5137,1.59764,"2012-09-19 14:16:27","Gargilesse - Rue du Village",2012,9
80744924,46.5132,1.59695,"2012-09-19 14:19:16","Gargilesse - Entrée du Château",2012,9
80744956,46.5131,1.59625,"2012-09-19 14:21:26","Gargilesse - Vers la Maison George SAND",2012,9
80745019,46.5132,1.59605,"2012-09-19 14:22:37","Gargilesse - Maison George SAND",2012,9
80745104,46.5129,1.59586,"2012-09-19 14:26:17","Gargilesse - Rue",2012,9
80745225,46.5124,1.59596,"2012-09-19 14:30:36","Gargilesse - Château",2012,9
80745294,46.5122,1.59592,"2012-09-19 14:30:46","Gargilesse - Pigeonnier et clocher",2012,9
80745349,46.5129,1.59585,"2012-09-19 14:32:59","Gargilesse - Mairie",2012,9
80745450,46.5131,1.59691,"2012-09-19 16:04:22","Gargilesse - Eglise",2012,9
80745546,46.5132,1.59705,"2012-09-19 16:04:51","Gargilesse - Maisons",2012,9
80745583,46.5131,1.59703,"2012-09-19 16:05:15","Gargilesse - Château",2012,9
80745618,46.5131,1.59697,"2012-09-19 16:05:42","Gargilesse - Entrée du Château",2012,9
80745640,46.5132,1.59671,"2012-09-19 16:07:18","Gargilesse - Place du Château",2012,9
80745670,46.5128,1.59658,"2012-09-19 16:08:54","Gargilesse - Eglise",2012,9
80745719,46.5127,1.59663,"2012-09-19 16:10:06","Gargilesse - Château",2012,9
80745760,46.5125,1.59628,"2012-09-19 16:11:48","Gargilesse - Eglise",2012,9
80745802,46.5125,1.59635,"2012-09-19 16:12:16","Gargilesse - Pigeonnier",2012,9
80745827,46.5124,1.59636,"2012-09-19 16:13:57","Gargilesse - Pigeonnier",2012,9
80745848,46.5125,1.59645,"2012-09-19 16:15:29","Gargilesse - Eglise",2012,9
80745869,46.5126,1.59667,"2012-09-19 16:16:42","Gargilesse - Eglise",2012,9
80745952,46.5126,1.59669,"2012-09-19 16:17:48","Gargilesse - Eglise - Gisant",2012,9
80745984,46.5126,1.59674,"2012-09-19 16:22:13","Gargilesse - Eglise",2012,9
80746071,46.5126,1.59679,"2012-09-19 16:23:04","Gargilesse - Eglise - Vers la crypte",2012,9
80746177,46.5126,1.59677,"2012-09-19 16:26:16","Gargilesse - Eglise - Crypte",2012,9
88164870,46.5029,1.58288,"2013-03-04 14:23:53","Untitled",2013,3
88164922,46.503,1.58328,"2013-03-04 14:26:03","Untitled",2013,3
97223688,46.5132,1.59698,"2013-04-29 17:03:54","            Gargilesse dampierre - un des plus beaux villages de France          ",2013,4
97323919,46.5126,1.59672,"2013-07-13 15:22:50","            Gargilesse-Dampierre - Eglise Saint-Laurent et Notre-Dame          ",2013,7
103153236,46.5114,1.58427,"2014-02-12 13:46:13","            Gargilesse-Dampierre, France          ",2014,2
103153270,46.503,1.58159,"2014-02-12 13:08:50","            Baraize, France          ",2014,2
103153353,46.503,1.58172,"2014-02-12 13:05:40","            Baraize, France          ",2014,2
103865456,46.5129,1.59752,"2014-03-02 16:37:33","            Gargilesse-Dampierre, France          ",2014,3
103865958,46.5121,1.59567,"2014-03-02 16:37:20","            Gargilesse-Dampierre, France          ",2014,3
103866057,46.511,1.58405,"2014-03-02 16:26:05","            Gargilesse-Dampierre, France          ",2014,3
107148553,46.5133,1.59694,"2014-04-29 12:49:38","            Gargilesse Church Crypt          ",2014,4
107148558,46.5133,1.59691,"2014-04-29 12:50:49","            Gargilesse Church Crypt          ",2014,4
107423277,46.5127,1.59669,"2012-09-22 14:13:44","            Crypte de l&#39;église de Gargilesse          ",2012,9
107423440,46.5126,1.59678,"2012-09-22 14:14:01","            Crypte de l&#39;église de Gargilesse          ",2012,9
107423546,46.5127,1.59676,"2012-09-22 14:14:52","            Crypte de l&#39;église de Gargilesse          ",2012,9
108654308,46.5136,1.59713,"2014-04-25 09:54:16","            Sculpture moderne          ",2014,4
108654305,46.5138,1.59774,"2014-04-25 09:52:24","            L&#39;entrée de Gargilesse          ",2014,4
108654316,46.5133,1.59654,"2014-04-25 09:58:28","            Maison natale de George Sand          ",2014,4
108654322,46.5038,1.5842,"2014-04-25 10:43:33","            Barrage de la Roche aux Moines sur la Creuse          ",2014,4
108654314,46.5132,1.59667,"2014-04-25 09:56:52","            Le château de Gargilesse          ",2014,4
108654320,46.5113,1.58456,"2014-04-25 10:20:51","            Au bord de la Creuse          ",2014,4
72221212,48.0019,2.08548,"2012-05-13 17:16:23","pazo de lourizan",2012,5
90475899,48.0014,2.08552,"2013-05-12 09:12:32","La mairie de Loury",2013,5
105941778,47.9968,2.08809,"2013-04-21 15:41:41","            loury          ",2013,4
105991045,47.994,2.05395,"2012-06-10 10:23:32","            La gare de Loury-Rebrechien,Loiret,France          ",2012,6
73018749,46.5576,2.58187,"2012-05-30 15:36:39","CDC du Grès Rose- L&#39;église Saint-Martin d&#39;Épineuil-le-Fleuriel",2012,5
85892798,46.5594,2.54472,"2012-06-03 13:48:45","Untitled",2012,6
98004752,46.9054,2.9445,"2013-07-06 18:51:46","            La Chapelle-Hugon - Eglise Saint-Étienne-et-Saint-Martin          ",2013,7
107448602,47.1331,1.68702,"2014-05-10 16:19:40","            Monument aux morts de Buxeuil          ",2014,5
85420349,47.0847,2.04477,"2013-01-30 15:47:06","église de Reuilly",2013,1
107448663,47.0853,2.04074,"2014-05-10 12:55:32","            Monument aux morts de Reuilly          ",2014,5
98005415,47.0322,2.65356,"2013-07-06 19:33:32","            Avord - Eglise Saint-Hugues          ",2013,7
86293556,47.6564,1.67312,"2013-02-18 15:25:33","La Ferté Saint Cyr",2013,2
86293585,47.656,1.67361,"2013-02-18 15:27:01","La Ferté Saint Cyr",2013,2
86293611,47.6558,1.67365,"2013-02-18 15:36:55","Hotel de Ville",2013,2
86293644,47.656,1.6738,"2013-02-18 15:27:33","église de La Ferté Saint Cyr",2013,2
86293948,47.656,1.67331,"2013-02-17 15:00:36","satatue du Pere Daniel Brotier",2013,2
86294010,47.6564,1.67298,"2013-02-18 15:25:38","Au bord de l&#39;eau",2013,2
86294048,47.6561,1.67494,"2013-02-18 15:28:53","église de La Ferté Saint Cyr",2013,2
86294239,47.6566,1.67362,"2013-02-18 15:23:40","La Ferté Saint Cyr",2013,2
86546334,47.6562,1.67391,"2013-02-07 15:11:17","Par temps gris...",2013,2
86778015,47.6562,1.67295,"2013-02-07 15:22:18","Par temps gris.",2013,2
86778168,47.6561,1.67498,"2013-02-07 15:20:32","Par temps gris.",2013,2
86778281,47.6561,1.67555,"2013-02-07 15:05:45","7 Février.  Par temps gris...",2013,2
93185684,47.6138,1.70009,"2013-07-15 18:31:01","Juillet. Dhuizon dans le Loir-et-Cher.",2013,7
93185710,47.6129,1.7006,"2013-07-15 18:30:45","Juillet. Dhuizon dans le Loir-et-Cher.",2013,7
100060369,47.6244,1.6773,"2013-11-13 16:34:56","            Forêt de Sologne...          ",2013,11
102515288,47.6557,1.67345,"2014-01-30 15:10:48","            Mickael Grignon Charcutier à La Ferté Saint-Cyr ...          ",2014,1
102515306,47.6557,1.67343,"2014-01-30 15:08:34","            Mickael Grignon Charcutier à La Ferté Saint-Cyr ...          ",2014,1
102515316,47.6556,1.67329,"2014-01-31 01:43:11","            Mickael Grignon Charcutier à La Ferté Saint-Cyr ...          ",2014,1
103236646,47.6562,1.67492,"2013-07-04 18:06:40","            La Ferté Saint-Cyr.          ",2013,7
103236656,47.6561,1.67411,"2013-07-04 15:36:39","            La Ferté Saint-Cyr.          ",2013,7
103236668,47.6562,1.67492,"2013-07-04 15:38:40","             Le Père Brottier, natif de La Ferté Saint-Cyr...          ",2013,7
103236707,47.6562,1.67492,"2013-06-19 15:55:24","            La Ferté Saint-Cyr.          ",2013,6
103236728,47.6562,1.67492,"2013-06-19 15:55:07","            La Ferté Saint-Cyr.          ",2013,6
103236806,47.6562,1.67492,"2013-06-19 15:50:10","            La Ferté Saint-Cyr.          ",2013,6
103236820,47.6562,1.67492,"2013-06-19 15:49:49","            La Ferté Saint-Cyr, le souvenir africain du Père Brottier...          ",2013,6
103236866,47.6562,1.67492,"2013-06-19 15:46:09","            La Ferté Saint-Cyr.          ",2013,6
103236877,47.6562,1.67492,"2013-06-19 15:53:38","            La Ferté Saint-Cyr.          ",2013,6
103236883,47.6562,1.67492,"2013-06-19 15:52:44","            La Ferté Saint-Cyr.          ",2013,6
103236899,47.6562,1.67492,"2013-06-19 15:49:21","            La Ferté Saint-Cyr.          ",2013,6
103236910,47.6562,1.67492,"2013-06-19 15:45:55","            La Ferté Saint-Cyr.          ",2013,6
103236922,47.6562,1.67492,"2013-06-19 15:45:35","            La Ferté Saint-Cyr. l&#39;église rénovée en 2010.          ",2013,6
103236951,47.6561,1.67411,"2013-06-19 15:42:12","            La Ferté Saint-Cyr.          ",2013,6
105738062,47.654,1.67296,"2014-04-16 14:01:34","            La Ferté Saint-Cyr, sous le soleil d&#39;Avril.          ",2014,4
105738158,47.6561,1.67388,"2014-04-16 21:59:31","            La Ferté Saint-Cyr sous le soleil d&#39;Avril.          ",2014,4
105739283,47.6561,1.67396,"2014-04-17 02:36:23","            La Ferté Saint-Cyr. sous le soleil d&#39;Avril.          ",2014,4
105762502,47.6526,1.67222,"2014-04-16 15:02:46","             La Ferté Saint-Cyr sous le soleil d&#39;Avril.          ",2014,4
105793208,47.6519,1.67168,"2014-04-16 14:26:45","            La Ferté Saint-Cyr.           ",2014,4
105793245,47.6506,1.67198,"2014-04-16 14:20:35","            La Ferté Saint-Cyr.           ",2014,4
105793280,47.6506,1.67198,"2014-04-16 14:19:11","            La Ferté Saint-Cyr.           ",2014,4
105793347,47.6506,1.67198,"2014-04-16 14:32:30","            La Ferté Saint-Cyr.           ",2014,4
105793390,47.6506,1.67198,"2014-04-18 13:15:41","            La Ferté Saint-Cyr.           ",2014,4
105793378,47.6506,1.67198,"2014-04-16 14:32:01","            La Ferté Saint-Cyr.           ",2014,4
105793594,47.6523,1.6717,"2014-04-18 13:04:27","            La Ferté Saint-Cyr, route de Bonneville.          ",2014,4
105793628,47.6519,1.67197,"2014-04-18 13:02:46","            La Ferté Saint-Cyr, route de Bonneville.          ",2014,4
105794738,47.6499,1.67282,"2014-04-18 14:11:23","            La Ferté Saint-Cyr, route de Bonneville.          ",2014,4
105794767,47.6513,1.67228,"2014-04-16 14:10:25","            La Ferté Saint-Cyr, route de Bonneville.          ",2014,4
105812754,47.6535,1.67238,"2014-04-16 14:51:09","            Un verre au bar de La Bachole, pour Antonio Modroño Ferr. et Typo. Tchin tchin !          ",2014,4
105907015,47.6544,1.67267,"2014-04-16 15:12:48","            La Ferté Saint-Cyr. Dans la cour du taxidermiste.          ",2014,4
67710582,48.1962,2.24367,"2012-02-29 15:08:17","Paysage contemporain",2012,2
74692193,48.1668,2.2164,"2012-01-02 12:02:19","Untitled",2012,1
101523006,48.1688,2.22704,"2013-11-25 17:19:43","             Pithiviers-le-Vieil , colonne sur îlot          ",2013,11
101523029,48.1686,2.22706,"2013-11-25 17:19:05","             Pithiviers-le-Vieil , colonne sur îlot          ",2013,11
106793216,48.1596,2.20737,"2014-05-04 10:31:41","            Pithiviers-le-Vieil, France          ",2014,5
107391290,48.1668,2.23731,"2014-04-11 08:46:22","            Pithiviers.          ",2014,4
71701731,47.0882,2.25486,"2012-04-20 12:03:45","Je te vois tu sais............",2012,4
71701734,47.0816,2.26344,"2012-04-20 12:07:35","Je suis un handicapé.Je garde la chambre .J&#39;ai besoin des conseils de **Fil**",2012,4
85892804,47.1022,2.22056,"2012-06-04 09:36:08","Untitled",2012,6
74419752,46.5419,1.7452,"2012-05-24 11:09:27","La-Prune... 24.05.2012",2012,5
74419914,46.5489,1.75512,"2012-05-25 11:35:12","Cluis 25.05.2012",2012,5
74419991,46.5491,1.75535,"2012-05-25 11:36:47","Cluis 25.05.2012",2012,5
74420087,46.549,1.75544,"2012-05-25 11:38:34","Cluis 25.05.2012",2012,5
74420185,46.5494,1.75603,"2012-05-25 11:38:51","Cluis 25.05.2012",2012,5
74420303,46.5494,1.75619,"2012-05-25 11:41:52","Cluis 25.05.2012",2012,5
74420462,46.5495,1.75656,"2012-05-25 11:48:50","Cluis 25.05.2012",2012,5
74818928,46.5492,1.75575,"2012-06-10 05:43:49","magnifique entrée",2012,6
74818933,46.5493,1.756,"2012-06-10 05:45:08","Untitled",2012,6
74818934,46.5495,1.75612,"2012-06-10 05:45:44","Untitled",2012,6
74818938,46.5498,1.7569,"2012-06-10 05:46:33","les ruines",2012,6
74818946,46.549,1.756,"2012-06-10 05:50:08","panorama",2012,6
74818942,46.5491,1.75555,"2012-06-10 05:49:41","Untitled",2012,6
74818940,46.5492,1.75602,"2012-06-10 05:46:51","à l&#39;intérieur",2012,6
74818948,46.5498,1.75607,"2012-06-10 05:50:58","Untitled",2012,6
74818953,46.5489,1.75557,"2012-06-10 05:51:12","Untitled",2012,6
74818955,46.5493,1.75678,"2012-06-10 05:56:42","Untitled",2012,6
90859226,46.55,1.75547,"2013-04-27 14:00:55","Castle of Cluis Dessous",2013,4
93435167,46.543,1.73075,"2012-08-04 23:12:54","Viaduc de Cluis (http://benjylecter.blogspot.com)",2012,8
93435206,46.5421,1.72863,"2012-08-05 00:09:56","Viaduc de Cluis (http://benjylecter.blogspot.com)",2012,8
108624346,46.5495,1.75539,"2014-04-24 12:57:51","            Ruines du château de Cluis          ",2014,4
108624341,46.5497,1.75567,"2014-04-24 12:55:27","            Ruines du château de Cluis          ",2014,4
108624350,46.5452,1.74847,"2014-04-24 16:24:13","            La Halle de Cluis          ",2014,4
108654292,46.5434,1.73423,"2014-04-25 07:19:26","            Viaduc sur l&#39;Auzon          ",2014,4
108654296,46.5428,1.73103,"2014-04-25 07:21:37","            Vue depuis le viaduc sur l&#39;Auzon          ",2014,4
108654302,46.5427,1.73091,"2014-04-25 07:21:51","            Vue depuis le viaduc sur l&#39;Auzon          ",2014,4
97323672,46.6358,1.38569,"2013-07-13 13:47:01","            Rivarennes - Eglise Saint-Denis          ",2013,7
100796766,46.6367,1.38659,"2012-10-02 13:34:37","            36800 Rivarennes, France          ",2012,10
69835082,48.1078,1.34593,"2012-04-05 15:29:01","chateaudun les grands moulins",2012,4
69835336,48.1107,1.33239,"2012-04-05 15:15:20","moulin de marboué",2012,4
74608252,48.1109,1.33014,"2012-06-29 21:05:27","Untitled",2012,6
75809754,48.1097,1.33224,"2012-01-06 22:46:29","&quot;Jean a de longues moustaches&quot;",2012,1
77302182,48.1076,1.34446,"2013-08-12 20:19:07","Rencontre de la Beauce et du Loir",2013,8
77302200,48.1075,1.34477,"2013-08-12 20:15:43","Les Terres d&#39;Ecoublanc, Marboué, Vallée du Loir",2013,8
77302289,48.1146,1.30181,"2013-08-12 21:31:45","Le Plessis de Marboué",2013,8
77302381,48.1155,1.3001,"2013-08-12 21:38:10","Untitled",2013,8
77302610,48.1074,1.34519,"2013-08-13 06:01:04","2012/08/11 : Nuit des étoiles. Curiosity that just landed on Mars",2013,8
77740169,48.1152,1.30265,"2012-02-06 08:48:13","Dust-covered pics sample",2012,2
87874970,48.1146,1.30252,"2012-01-07 12:37:33","La faune et la flore",2012,1
87874983,48.1149,1.3027,"2012-01-07 14:38:25","Poules",2012,1
87875268,48.1165,1.30501,"2012-02-05 12:30:13","Photo0046.jpg",2012,2
87875272,48.1151,1.303,"2012-02-05 12:27:32","Le Plessis - neige",2012,2
87875274,48.1148,1.30197,"2012-02-05 12:26:09","Le Plessis - neige",2012,2
87875282,48.1153,1.30338,"2012-02-05 12:28:06","Le Plessis (Marboué) - neige",2012,2
87875349,48.1176,1.30617,"2012-02-05 12:34:12","Untitled",2012,2
87875439,48.1154,1.30351,"2012-02-05 12:28:37","Le Plessis (Marboué) - neige",2012,2
87875709,48.1192,1.30784,"2012-02-05 12:37:10","Untitled",2012,2
87875812,48.1182,1.3066,"2012-02-05 12:43:16","Untitled",2012,2
87875843,48.1143,1.30656,"2012-02-06 08:48:29","Untitled",2012,2
87875891,48.1138,1.3263,"2012-02-05 17:04:10","Untitled",2012,2
87875897,48.1074,1.34522,"2012-02-05 17:10:14","Untitled",2012,2
87875903,48.1131,1.33008,"2012-02-05 17:05:41","Nationale 10 à Marboué - neige",2012,2
87875969,48.1136,1.30772,"2012-02-06 08:48:51","Untitled",2012,2
87875972,48.1139,1.30712,"2012-02-06 08:48:45","Untitled",2012,2
87875992,48.1134,1.30797,"2012-02-06 08:48:58","Untitled",2012,2
87875995,48.1149,1.3057,"2012-02-06 08:48:36","Untitled",2012,2
87875998,48.1105,1.31299,"2012-02-05 17:00:25","Près de Marboué",2012,2
87876106,48.1131,1.31012,"2012-02-06 08:49:47","Près de Marboué",2012,2
87876324,48.1077,1.33866,"2012-02-06 08:57:11","Entre Marboué et Donnemain",2012,2
87877332,48.1091,1.31561,"2012-02-06 08:51:05","Le &quot;Croc-Marbot&quot; près de Marboué, sous la neige",2012,2
87877358,48.1138,1.32694,"2012-02-06 08:53:49","Village de Marboué",2012,2
87877471,48.1075,1.33003,"2012-02-06 08:55:37","N10 à Marboué",2012,2
89331707,48.1154,1.30454,"2012-02-06 08:48:36","Untitled",2012,2
89331877,48.1077,1.34428,"2013-08-13 06:17:41","Untitled",2013,8
89331919,48.1181,1.28386,"2013-08-13 06:35:30","Untitled",2013,8
89331974,48.1258,1.27853,"2013-08-13 06:35:49","Untitled",2013,8
96253015,48.1135,1.31029,"2013-06-24 14:00:21","            Les champs près de Marboué          ",2013,6
